city,Latitude,Longitude 
San Marcos,29.8830556,-97.9411111
Lackland Afb,29.38421,-98.581082
Chester (Uk/England),53.2,-2.916667
Edna,28.9783333,-96.6458333
Kaneohe,21.4180556,-157.8036111
Bristol,36.595,-82.1888889
Penarth (Uk/Wales),51.434722,-3.18
Norwalk,41.1175,-73.4083333
Pell City,33.5861111,-86.2861111
Live Oak,30.2947222,-82.9841667
Hawthorne,33.9163889,-118.3516667
Brevard,35.2333333,-82.7344444
Bellmore,40.6686111,-73.5275
Manchester,37.1536111,-83.7619444
Lexington,35.8238889,-80.2536111
Harlan County,36.8430556,-83.3219444
West Bloomfield,42.5377778,-83.2330556
Niantic,41.3252778,-72.1936111
Bermuda Nas,32.364167,-64.678611
Hudson,42.3916667,-71.5666667
Cardiff (Uk/Wales),51.5,-3.2
Hudson,38.1055556,-98.6597222
North Charleston,32.8544444,-79.975
Washougal,45.5827778,-122.3522222
Stoke Mandeville (Uk/England),51.783333,-0.783333
San Antonio,29.4238889,-98.4933333
Louisville,38.2541667,-85.7594444
Elmont,40.7008333,-73.7133333
Poughkeepsie,41.7002778,-73.9213889
Saddle Lake (Canada),53.970571,-111.689885
San Diego,32.7152778,-117.1563889
Security,38.7583333,-104.7425
Houston,29.7630556,-95.3630556
Dallas,32.7833333,-96.8
Manchester,42.9955556,-71.4552778
Gisborne (New Zealand),-38.662334,178.017649
Houston,29.7630556,-95.3630556
Traverse City,44.7630556,-85.6205556
White Plains,41.0338889,-73.7633333
Leeds (Uk/England),53.8,-1.583333
Holmes/Pawling,41.523427,-73.646795
Milwaukee,43.0388889,-87.9063889
New Gloucester,43.9627778,-70.2830556
Boulder,40.015,-105.27
Seattle (Ballard Area),47.6063889,-122.3308333
Calabasas,34.1577778,-118.6375
Centralia,46.7163889,-122.9530556
Kranklin,36.722263,-86.577218
Ashburn,31.7058333,-83.6533333
Frisco,35.235,-75.6288889
Harrisburg,40.2736111,-76.8847222
Panama City,30.1586111,-85.6602778
Stafford,29.6158333,-95.5575
Seymour,35.8905556,-83.7247222
Weatherford,32.7591667,-97.7969444
Zlatoust (Russia),55.183333,59.65
Peoria,40.6936111,-89.5888889
Carthage,36.2522222,-85.9516667
Mercedies,26.149798,-97.913611
Burnt Hills,42.9097222,-73.8955556
Pinebergen,34.1027778,-91.9922222
Toronto (Greater Toronto Area) (Canada),43.666667,-79.416667
Milwaukee,43.0388889,-87.9063889
Oakland,37.8044444,-122.2697222
Higginsville,39.0725,-93.7169444
Lake Macquarie (Nsw&#44 Australia),-33.093373,151.588982
Charleston,32.7763889,-79.9311111
Monroe County,39.4402778,-84.3622222
Connersville,39.6411111,-85.1411111
Mesa,33.4222222,-111.8219444
Bonaire,32.5436111,-83.5961111
Austin,43.6666667,-92.9744444
Hollywood,34.0983333,-118.3258333
Phoenix (North Part),33.4483333,-112.0733333
Elgin,42.0372222,-88.2811111
Las Vegas,36.175,-115.1363889
Las Vegas,36.175,-115.1363889
Nyc/Westchester Area,40.935998,-73.901708
Spokane (About 30 Miles Sw Of&#44I-90&#44 Maybe Mm 254),47.6588889,-117.425
Mooresville,35.5847222,-80.8102778
St. John&#39S (Canada),47.55,-52.666667
Delano,35.265,-84.5533333
Martinez,38.0194444,-122.1330556
Kansas City,39.1141667,-94.6272222
Dallas,32.7833333,-96.8
San Diego,32.7152778,-117.1563889
Kennewick,46.2113889,-119.1361111
Hayward,37.6688889,-122.0797222
Rachel,37.6447222,-115.7427778
Humphrey,41.6916667,-97.4841667
Casey Key (North End Of),27.150053,-82.480653
Elgin,45.565,-117.9163889
Lewiston,44.8838889,-84.3055556
Perryville,37.7241667,-89.8611111
Boynton Beach,26.525,-80.0666667
Victoria (Canada),46.216667,-63.483333
Jueanu,43.40555,-88.705104
Valley Park Area Of St. Louis,38.627003,-90.199404
Brinktown,38.1266667,-92.0844444
Florence,38.9988889,-84.6266667
Seattle (West),47.6063889,-122.3308333
Port Orchard,47.5405556,-122.635
Rockwell City,42.3952778,-94.6336111
Sydney (Nsw&#44 Australia),-33.861481,151.205475
Vancouver (Canada),49.25,-123.133333
Hayward,37.6688889,-122.0797222
Ottumwa,41.0041667,-92.3736111
Fresno,36.7477778,-119.7713889
Phoenix,33.4483333,-112.0733333
Virginia Beach,36.8527778,-75.9783333
Hayward,46.0130556,-91.4844444
Philomath,44.5402778,-123.3663889
Adelaide (Pt. Wakefield) (South Australia),-34.928661,138.598633
Seattle,47.6063889,-122.3308333
Victoria (Canada),46.216667,-63.483333
Cincinnati,39.1619444,-84.4569444
Portland,45.5236111,-122.675
New Buffulo,41.79393,-86.743915
Alhambra,34.0952778,-118.1261111
Indianapolis,39.7683333,-86.1580556
Centreville,38.8402778,-77.4291667
Grand View,42.9897222,-116.0925
Temperance,41.7791667,-83.5688889
Crescent Beach,33.8075,-78.7011111
Albuquerque,35.0844444,-106.6505556
Bickerton (Near Wetherby) (Uk/England),53.070884,-2.736506
Gleason,45.3088889,-89.4963889
Mahwah,41.0886111,-74.1441667
Worthington St. Forest,40.058324,-74.405661
Portage La Prairie (Canada),49.966667,-98.3
Terre Haute,39.4666667,-87.4138889
Indianapolis,39.7683333,-86.1580556
Nobel (Canada),45.416667,-80.1
Morgantown,39.6294444,-79.9561111
Berkeley,37.8716667,-122.2716667
Rock Island,41.5094444,-90.5786111
Kedainiai (Lithuania),55.288131,23.957728
Chateauqua,42.209774,-79.466844
Ripley,42.2669444,-79.7108333
Faribault,44.295,-93.2686111
Mansfield,40.7583333,-82.5155556
Columbia,38.9516667,-92.3338889
Gleason,45.3088889,-89.4963889
Seattle,47.6063889,-122.3308333
Apache Junction,33.415,-111.5488889
North Miami Beach,25.9327778,-80.1627778
Los Angeles,34.0522222,-118.2427778
Loretto,40.5030556,-78.6305556
Newtown (Uk/Wales),52.516667,-3.3
Lewisburg,35.4491667,-86.7888889
North Miami Beach,25.9327778,-80.1627778
East Wenatchee,47.4158333,-120.2919444
Hendersonville,35.3186111,-82.4611111
Brainerd,46.3580556,-94.2005556
Pennington,31.1911111,-95.2352778
San Francisco,37.775,-122.4183333
Blairsville,34.8761111,-83.9583333
Savannah,35.2247222,-88.2491667
Waynesboro,38.0683333,-78.8897222
Unsure,35.20105,-91.831833
Bray,34.6377778,-97.8172222
Plymouth (Devonshire) (Uk/England),50.396389,-4.138611
Waycross,31.2133333,-82.3541667
Wolfforth,33.5058333,-102.0086111
Lyndhurst,41.52,-81.4888889
Lebanon,44.5366667,-122.9058333
Stockbridge,33.5441667,-84.2338889
Denver,39.7391667,-104.9841667
Jacksonville,30.3319444,-81.6558333
Indio,33.7205556,-116.2147222
Owego,42.1033333,-76.2625
Downingtown,40.0063889,-75.7036111
Austin,30.2669444,-97.7427778
Starrsville (Covington),33.5394444,-83.8194444
West Palm Beach Florida,26.705621,-80.03643
Conyers,33.6675,-84.0177778
Vero Beach,27.6383333,-80.3975
Jensen Beach,27.2541667,-80.23
Houston,29.7630556,-95.3630556
Duluth,46.7833333,-92.1063889
Fleming,40.68,-102.8388889
Grove City,41.1577778,-80.0888889
Van Alstyne,33.4213889,-96.5769444
Northglenn,39.8855556,-104.9866667
Stord (Norway),59.900209,5.282347
London (Canada),42.983333,-81.25
North Branch,45.5113889,-92.98
Slingerlands,42.6291667,-73.865
Carlin,40.7138889,-116.1030556
Evansville,37.9747222,-87.5558333
Albany,42.6525,-73.7566667
Fremont,37.5483333,-121.9875
Yuma,32.7252778,-114.6236111
South Bend,41.6833333,-86.25
La Crescent,43.8280556,-91.3038889
Moon Township,40.516977,-80.221348
Philadelphia,39.9522222,-75.1641667
Seattle,47.6063889,-122.3308333
Pueblo,38.2544444,-104.6086111
Cincinnati,39.1619444,-84.4569444
San Diego,32.7152778,-117.1563889
Madison,43.0730556,-89.4011111
Coldwater,40.4797222,-84.6283333
Crested Butte,38.8697222,-106.9872222
Tulsa,36.1538889,-95.9925
Eagar,34.1111111,-109.2908333
Suffolk,36.7280556,-76.5838889
Anaheim,33.8352778,-117.9136111
Wilmington,34.2255556,-77.945
Leesburg,39.1155556,-77.5638889
Michigan City,41.7075,-86.895
Cupertino,37.3230556,-122.0311111
Orchard Park,42.7675,-78.7441667
Harrisburg,40.2736111,-76.8847222
Euclid,41.5930556,-81.5269444
Starr,34.3769444,-82.6958333
Greenwich,41.0263889,-73.6288889
North Charleston,32.8544444,-79.975
San Francisco Airport,37.615223,-122.389979
Springfield,38.7891667,-77.1875
Bridgeport,41.1669444,-73.2052778
Clackamas,45.4077778,-122.5691667
San Angelo,31.4636111,-100.4366667
Windsor,41.8525,-72.6441667
Sterling,41.7886111,-89.6961111
Everett,47.9791667,-122.2008333
Kykotsmovi,35.8752778,-110.6197222
Albany,42.6525,-73.7566667
Garden Grove,33.7738889,-117.9405556
Miami,25.7738889,-80.1938889
Troy,42.7283333,-73.6922222
Farmington,36.7280556,-108.2180556
Prescott Valley,34.61,-112.315
Ashville,42.0963889,-79.3758333
Epsom (Surrey) (Uk/England),51.316667,-0.266667
North Kingstown,41.55,-71.4666667
Groton,41.35,-72.0788889
Peabody-Saugus,42.468164,-71.014118
Mechanicsville,37.6086111,-77.3736111
Murfeesboro/Smyrna,35.947474,-86.488367
Hamilton (Canada),43.25,-79.833333
Middletown,41.5622222,-72.6511111
Lakewood,41.4819444,-81.7983333
York,39.9625,-76.7280556
North Platte,41.1238889,-100.765
Waynesville,39.5297222,-84.0866667
Bridgeport,41.1669444,-73.2052778
San Francisco Airport,37.615223,-122.389979
San Diego,32.7152778,-117.1563889
Sterling Heights,42.5802778,-83.0302778
Syracuse,43.0480556,-76.1477778
Syracuse,43.0480556,-76.1477778
Colorado Springs,38.8338889,-104.8208333
Moundville,32.9975,-87.63
New York City (Bronx),40.7141667,-74.0063889
Mount Albert (Canada),44.136076,-79.308339
Las Cruces,32.3122222,-106.7777778
Marion,37.7305556,-88.9330556
San Jose,37.3394444,-121.8938889
Phoenix,33.4483333,-112.0733333
Yakima,46.6022222,-120.5047222
Austin,30.2669444,-97.7427778
Bean Station,36.3436111,-83.2841667
Rochester,46.8219444,-123.095
Suffern,41.1147222,-74.15
Rancho Mirage,33.7397222,-116.4119444
Clifton,40.858433,-74.163755
Palm Harbor,28.0777778,-82.7638889
Aurburn,36.864209,-86.710273
St. Louis County,38.6272222,-90.1977778
Ottawa (Canada),45.416667,-75.7
Rittman,40.9780556,-81.7822222
Harvey Station (Canada),45.716667,-67
Essex Junction,44.4905556,-73.1113889
Kenner,29.9938889,-90.2416667
Drexel,39.7463889,-84.2866667
Hudson,42.7647222,-71.4402778
Grand Blanc,42.9275,-83.63
Savage,44.7791667,-93.3361111
Warren,42.4775,-83.0277778
Canton,42.3086111,-83.4822222
Lost Creek,39.1611111,-80.3522222
Hudson,42.7647222,-71.4402778
Jupiter,26.9338889,-80.0944444
Brighton,42.5294444,-83.7802778
Alice Springs  (Nt&#44 Australia),-23.697479,133.883621
Minnetonka,44.9133333,-93.5030556
Otto,38.3708333,-90.5002778
Kewanee,41.2455556,-89.9247222
Kewanee,41.2455556,-89.9247222
Albuquerque,35.0844444,-106.6505556
Jackson,39.7763889,-74.8627778
Riverside,33.9533333,-117.3952778
New York City (Brooklyn),40.7141667,-74.0063889
Huntington,38.4191667,-82.4452778
Damascus,36.6336111,-81.7838889
Hafnarfjordur (Iceland),64.066667,-21.95
Montara,37.5422222,-122.515
Vega Baja (Puerto Rico),18.4463889,-66.3880556
Mount Carmel,36.5452778,-82.6611111
Highland,39.7944444,-87.3958333
Bar Harbor (Bar Island Crossover),44.3875,-68.2044444
Elk Grove,38.4088889,-121.3705556
Montgomery,32.3666667,-86.3
Los Angeles,34.0522222,-118.2427778
Somerset?,45.124411,-92.673537
Three Rivers,41.9438889,-85.6325
Canby,45.2630556,-122.6913889
Parry Sound (Near) (Canada),45.333333,-80.033333
Portville,42.0386111,-78.3411111
Portville,42.0386111,-78.3411111
Portville,42.0386111,-78.3411111
Portville,42.0386111,-78.3411111
Kirbyville (Due South Of),36.6230556,-93.1638889
Winnemucca,40.9730556,-117.7347222
Ashland,42.1947222,-122.7083333
Augusta,37.6866667,-96.9763889
Montgomery,30.3880556,-95.6961111
Eureka Springs,36.4011111,-93.7377778
Parker&#39S Lake,37.704344,-88.426757
Addison (I-355 And Us 20 (Lake St.),41.9316667,-87.9888889
London (Uk/England),51.514125,-0.093689
Watertown,43.9747222,-75.9111111
Elverta,38.7138889,-121.4616667
Dolgellau (Uk/Wales),52.75,-3.883333
Whittier,33.9791667,-118.0319444
Somerset,45.1244444,-92.6733333
Fairbanks,64.8377778,-147.7163889
Denver,39.7391667,-104.9841667
Columbia,31.2516667,-89.8375
Grass Valley,39.2191667,-121.06
Lima,40.7425,-84.1052778
Springfield,37.2152778,-93.2980556
Reno,39.5297222,-119.8127778
Randolph,42.1625,-71.0416667
Dallas,32.7833333,-96.8
San Diego,32.7152778,-117.1563889
Austin,43.6666667,-92.9744444
New York City (Manhattan),40.7141667,-74.0063889
Truckee,39.3280556,-120.1822222
Fort Knox,37.916104,-85.956247
Newaygo,43.4197222,-85.8
Nebraska (Above?&#44 Or Above South Dakota),41.492537,-99.901813
Placerville,38.7297222,-120.7975
Frederick,40.0991667,-104.9366667
Bloomington,39.1652778,-86.5263889
Independence,39.0911111,-94.4152778
Honolulu,21.3069444,-157.8583333
Los Angeles,34.0522222,-118.2427778
Dallas,44.9194444,-123.3158333
Pitman,39.7327778,-75.1319444
San Jose,37.3394444,-121.8938889
Nuevo Laredo (Mexico),27.477936,-99.549573
Salinas,36.6777778,-121.6544444
Arroyo Grande,35.1186111,-120.5897222
Fresno,36.7477778,-119.7713889
Strongsvilles,41.314497,-81.83569
Laredo,27.5061111,-99.5072222
Lake Worth,26.6155556,-80.0572222
Williamsville,42.9638889,-78.7380556
Cannock (Uk/England),52.683333,-2.016667
Holiday,28.1875,-82.7397222
Eagan,44.8041667,-93.1666667
Siloam Sprngs,36.188137,-94.540496
Canyonlands Np,39.32098,-111.093731
Lake Point,40.6808333,-112.2622222
Pearl Harbor,21.344507,-157.974891
Peoria,33.5805556,-112.2366667
Buckeye,33.3702778,-112.5830556
Casa Grande,32.8794444,-111.7566667
Tempe,33.4147222,-111.9086111
Mobile,30.6941667,-88.0430556
Little Ferry,40.8527778,-74.0425
Wall Lake,42.2711111,-95.0927778
Rotherham (South Yorkshire) (Uk/England),53.433333,-1.35
Nashville,36.1658333,-86.7844444
Calumet City,41.615591,-87.529487
York,43.161748,-70.648258
Littlerock,34.746481,-92.289595
Lynnwood,47.8211111,-122.3138889
Monterey Park,34.0625,-118.1219444
Two Harbors,47.0227778,-91.6705556
Pensacola,30.4211111,-87.2169444
Milton,30.6322222,-87.0397222
Kidlington (Uk/England),51.816667,-1.283333
La Crescenta,34.2241667,-118.2391667
Enid,36.3955556,-97.8780556
Pampa,35.5361111,-100.9594444
Rome,43.2127778,-75.4561111
Melbourne,39.0297222,-84.3663889
Carlton,45.2944444,-123.1752778
Clackamas,45.4077778,-122.5691667
Brassall (Australia),-27.597553,152.7455
Seattle,47.6063889,-122.3308333
Tega Cay,35.0241667,-81.0280556
Gulf Shores,30.2458333,-87.7008333
London (Uk/England),51.514125,-0.093689
Klagenfurt (Austria),46.62794,14.30899
Brownsville,25.9013889,-97.4972222
Concord,37.9780556,-122.03
Salisbury,35.6708333,-80.4744444
Bellmere (Australia),-27.088079,152.928057
Bridgeport,41.1669444,-73.2052778
Dover,39.5122222,-76.7697222
Riverside,33.9533333,-117.3952778
Naples,26.1416667,-81.795
Centerville,31.2577778,-95.9780556
Villa Park/Lombard,41.885738,-87.969213
Albuquerque,35.0844444,-106.6505556
Los Angeles,34.0522222,-118.2427778
Sedro Woolley,48.50389,-122.23611
Deer Park,40.7616667,-73.3297222
Crisfield,37.9833333,-75.8541667
St. John&#39S (Canada),47.55,-52.666667
Plymouth,42.3713889,-83.4702778
Glendale,33.5386111,-112.1852778
Louisville,38.2541667,-85.7594444
West Palm Beach,26.7052778,-80.0366667
North Smithfield,41.9666667,-71.55
Putnamville,39.5741667,-86.8652778
Madison,43.0730556,-89.4011111
Redondo Beach,33.8491667,-118.3875
Moxee,46.553733,-120.383162
Albany,42.6525,-73.7566667
West Palm Beach,26.7052778,-80.0366667
Orangevale,38.6786111,-121.2247222
Cottage Grove,44.8277778,-92.9436111
Glendora,34.1361111,-117.8644444
Ramona,33.0416667,-116.8672222
Union City,37.5958333,-122.0180556
Clinton Township,42.586888,-82.919551
Omaha,37.8902778,-88.3030556
Henderson,36.0397222,-114.9811111
Cedar City,37.6775,-113.0611111
Des Moines,41.6005556,-93.6088889
New Bedford,41.6361111,-70.9347222
Monroe,41.3325,-73.2077778
Holden Beach,33.9133333,-78.3041667
Harrodsburg,37.7622222,-84.8433333
Worcester,42.2625,-71.8027778
Watchung (Was My Perspective),40.6377778,-74.4513889
Tewksbury,42.6105556,-71.2347222
Bablyon,40.695655,-73.325675
Angola,41.6347222,-84.9994444
Arbutus,39.2544444,-76.7002778
Forty Fort,41.2788889,-75.8786111
Saratoga Springs,43.0830556,-73.785
Nanticoke,41.2052778,-76.0052778
Las Cruces,32.3122222,-106.7777778
Ravensdale,47.3525,-121.9825
Levittown,40.155,-74.8291667
Phoenix,33.4483333,-112.0733333
Blue Island,41.6572222,-87.68
Saginaw,43.4194444,-83.9508333
Hamilton (Canada),43.25,-79.833333
Ankeny,41.7297222,-93.6055556
Palm Beach Gardens,26.8230556,-80.1388889
Pickering (Canada),43.866667,-79.033333
Kalamazoo,42.2916667,-85.5872222
Lawrence,38.9716667,-95.235
North Cincinnati,39.103118,-84.51202
Essex Junction,44.4905556,-73.1113889
Cincinnati,39.1619444,-84.4569444
Cincinnati,39.1619444,-84.4569444
Naples,26.1416667,-81.795
Bonaie,32.543889,-83.596111
Cincinnati,39.1619444,-84.4569444
Union,38.9458333,-84.6805556
Hubbardston,42.4736111,-72.0066667
Covington,33.5966667,-83.8602778
Drexel,39.7463889,-84.2866667
Fayetteville,43.0297222,-76.0047222
Jupiter,26.9338889,-80.0944444
Melbourne,28.0833333,-80.6083333
Dresser,45.3561111,-92.6333333
Lombard,41.88,-88.0077778
Windsor (Canada),45.583333,-72
North Canton,40.8758333,-81.4025
Pinckney,42.4566667,-83.9463889
Pikeville,37.4791667,-82.5188889
Fukuoka (Japan),33.590355,130.401716
Kansas City,39.0997222,-94.5783333
Flatwoods,38.7230556,-80.65
Mono Lake (Area),38.007059,-119.012259
Newport,43.3652778,-72.1738889
Nelchina (Near),61.9919444,-146.7686111
Paterson,40.9166667,-74.1722222
Northeast Cape Afs,70.292489,-161.903334
Jacksonville,39.7338889,-90.2288889
Toledo,41.6638889,-83.5552778
Tulsa,36.1538889,-95.9925
Nashville,36.1658333,-86.7844444
Graham,36.0688889,-79.4008333
Biloxi,30.3958333,-88.8852778
Colonial Heights,37.2438889,-77.4105556
Dushore,41.5241667,-76.4011111
Edmonton (30 Mi. East Of&#44 Hwy 16 East) (Canada),53.55,-113.5
Buffalo,42.8863889,-78.8786111
Anacortes,48.5127778,-122.6113889
Anamosa,42.1083333,-91.285
Corvallis,44.5647222,-123.2608333
Chaffee,42.5680556,-78.4791667
Greenville,38.8922222,-89.4130556
Hudson&#39S Hope (Canada),56.031639,-121.905722
Minneapolis,44.98,-93.2636111
Boston,42.3583333,-71.0602778
Kennebunkport,43.3616667,-70.4772222
San Francisco,37.775,-122.4183333
Viet Nam,14.058324,108.277199
Kingston (Canada),44.233333,-76.483333
New York City (Brooklyn),40.7141667,-74.0063889
Bentonville,36.3727778,-94.2086111
Summit Lake Indian Reservation,41.524898,-119.05102
Tampa,27.9472222,-82.4586111
New York City (Brooklyn),40.7141667,-74.0063889
Indian Ocean (Usn Vessel),-33.137551,81.826172
Pasadena,34.1477778,-118.1436111
Potwin,37.9388889,-97.0194444
Denton,33.2147222,-97.1327778
Mosheim,31.6261111,-97.5997222
Monroe,47.8555556,-121.9697222
Pickens/Pumpkintown,35.002778,-82.652778
Montezuma,39.7927778,-87.3708333
Virginia Beach,36.8527778,-75.9783333
Bloomington,39.1652778,-86.5263889
North St. Paul,45.012466,-92.991883
Roseburg,43.2166667,-123.3405556
Beatty,36.9086111,-116.7583333
Hixson,35.1405556,-85.2327778
Valley City,41.2377778,-81.9316667
Denton,33.2147222,-97.1327778
Weirton,40.4188889,-80.5897222
Ankara (Turkey),39.92077,32.85411
Deerwood,46.4736111,-93.8986111
Chester,40.7841667,-74.6972222
Kincheloe Air Force Base&#44 Michigan,44.314844,-85.602364
Maricopa,33.0580556,-112.0469444
Hartville,40.9636111,-81.3313889
Fairport,43.0986111,-77.4422222
Thonotosassa,28.0611111,-82.3025
Iselton,38.161861,-121.611621
Fountain Valley,33.7091667,-117.9527778
Ferndale,40.5763889,-124.2627778
Windsor,35.9983333,-76.9463889
Lecompte,31.0944444,-92.4002778
Francesville,40.9852778,-86.8794444
Lomita,33.7922222,-118.3141667
Columbia,39.2402778,-76.8397222
Buffalo,42.8863889,-78.8786111
Olympia,47.0380556,-122.8994444
Pittsburgh,40.4405556,-79.9961111
Cranbury,40.3161111,-74.5141667
Fremont,37.5483333,-121.9875
Mountainboro,34.1469444,-86.1305556
Shirleysburg,40.2977778,-77.8744444
Jersey City,40.7280556,-74.0780556
Hesperia,43.5688889,-86.0394444
Mt. Sterling,38.056468,-83.943256
Swartz Creek,42.9572222,-83.8305556
Birmingham (Uk/England),52.466667,-1.916667
Ayer,42.5611111,-71.5902778
Elizabeth Township,40.256648,-79.818468
Tarboro,35.8966667,-77.5361111
Waldport,44.4269444,-124.0675
Chatsworth,34.2572222,-118.6002778
Acton,43.5341667,-70.9102778
Brandon,27.9375,-82.2861111
Holton,43.4133333,-86.0794444
Monroe,34.9852778,-80.5497222
Jefferson,41.7386111,-80.77
Santa Margarita/Atascadero (Between&#44 Hwy 101),35.423335,-120.618785
Lawrence,38.9716667,-95.235
Klamath Falls,42.225,-121.7805556
N. Ridgeville,41.389491,-82.019032
Wheeling,40.0638889,-80.7211111
West Palm Beach,26.7052778,-80.0366667
Victoria (Canada),46.216667,-63.483333
Roseburg (7 Miles Northwest Of),43.2166667,-123.3405556
Alstead,43.1488889,-72.3611111
Louisburg,36.0988889,-78.3013889
Mackay,43.9147222,-113.6125
Winchester (Near),37.99,-84.1797222
Jacksonville,39.7338889,-90.2288889
Pawling,41.5619444,-73.6030556
Carmichael,38.6172222,-121.3272222
Orono,44.8830556,-68.6725
Pateros,48.0511111,-119.9022222
San Pedro,33.7358333,-118.2913889
Jamestown,42.0969444,-79.2355556
Easley,34.8297222,-82.6016667
Wilmington,33.78,-118.2616667
Maryville,35.7563889,-83.9705556
Little Rock,34.7463889,-92.2894444
Mckenzie,36.1325,-88.5186111
Las Vegas,36.175,-115.1363889
Lafayette,34.7047222,-85.2819444
Echo Summit (Sierra At Tahoe Ski Area),38.812963,-120.030183
Dublin (Near Warner Robins),32.5402778,-82.9038889
Springfield,37.2152778,-93.2980556
Longview,32.5005556,-94.7402778
Tempe,33.4147222,-111.9086111
Delaware,40.2986111,-83.0680556
Pryor,45.4297222,-108.5325
Pawnee,36.3377778,-96.8036111
New York City,40.7141667,-74.0063889
Tylertown/Mccomb (Between; On Hwy. 98 ),31.243787,-90.453153
Chicopee,42.1486111,-72.6083333
Santa Barbara,34.4208333,-119.6972222
Warsaw,38.2430556,-93.3816667
Las Vegas,36.175,-115.1363889
Fredericksburg,40.4436111,-76.4286111
Iowa City,41.6611111,-91.53
Lake Oswego,45.4208333,-122.6694444
Lake Oswego,45.4208333,-122.6694444
Ashland,38.4783333,-82.6380556
Williamsburg,40.4619444,-78.2
Taunton (Near) (Uk/England),51.021111,-3.104722
Tinley Park,41.5733333,-87.7844444
Wantagh,40.6836111,-73.5105556
Austin,30.2669444,-97.7427778
Dover,43.1977778,-70.8741667
Lake Berryessa,38.609741,-122.254045
West Houston (Greenridge @ Westiemer Rd.; Near Galleria),29.7630556,-95.3630556
Bainbridge,39.2275,-83.2705556
New York City (Manhattan),40.7141667,-74.0063889
Cupertino,37.3230556,-122.0311111
Safford,32.8338889,-109.7069444
The Woodlands,30.1577778,-95.4891667
Bemidji,47.4736111,-94.88
Garland,32.9125,-96.6386111
Jefferson,42.4811111,-74.6108333
Oregon (Rural),43.804133,-120.554201
Charlotte,35.2269444,-80.8433333
Green Bay,44.5191667,-88.0197222
Pelzer,34.6422222,-82.4561111
Hyannis,41.6527778,-70.2833333
Bourbonnais,41.1416667,-87.875
Oakland,43.4222222,-123.2972222
Martinsville,36.6913889,-79.8727778
Summerville,33.0183333,-80.1758333
Lakeland,28.0391667,-81.95
Logan,41.7355556,-111.8336111
Portland,45.5236111,-122.675
St. Paul,45.2113889,-122.9755556
Nisqually,47.0566667,-122.7
Rio Rancho,35.2333333,-106.6638889
Bayfield,37.2255556,-107.5975
San Francisco,37.775,-122.4183333
Elgin,42.0372222,-88.2811111
Del Mar,32.9594444,-117.2644444
La Jolla (Over),32.8472222,-117.2733333
Manchester,42.9955556,-71.4552778
Clarinda,40.7419444,-95.0380556
Warrington (Uk/England),53.383333,-2.6
Mt Sterling,39.987271,-90.763463
Ipava,40.3513889,-90.3244444
Mosinee,44.7930556,-89.7030556
San Antonio,29.4238889,-98.4933333
Oak Brook,41.8327778,-87.9288889
Portland,45.5236111,-122.675
Elyria,41.3683333,-82.1077778
New York City (Manhattan),40.7141667,-74.0063889
Norman,35.2225,-97.4391667
Las Vegas,36.175,-115.1363889
Nellis Air Force Base (50-100 Miles East Of),36.241416,-115.050807
Miami,25.7738889,-80.1938889
Independence,39.0911111,-94.4152778
Blankenberge (Belgium),51.312374,3.132768
Vaughn,47.3444444,-122.7619444
Sturgis,41.7991667,-85.4191667
Markham (Canada),43.866667,-79.266667
Yangtzee River (China),31.84694,120.872862
Madera,36.9613889,-120.0597222
Stockton,37.9577778,-121.2897222
Chandler,33.3061111,-111.8405556
Belmont,37.5202778,-122.2747222
Prineville,44.3,-120.8333333
Tillicoultry (Central Scotland) (Uk/Scotland),56.15,-3.75
Wheaton,39.0397222,-77.0555556
Orange Park,30.1658333,-81.7066667
Colorado Springs,38.8338889,-104.8208333
Maryville,40.3461111,-94.8722222
Healesville. Victoria (Australia),-37.653829,145.517006
Jackson,35.6144444,-88.8138889
Jones Beach,42.9047222,-76.3944444
Seattle,47.6063889,-122.3308333
Kansas City,39.0997222,-94.5783333
Houghton Lake,44.3147222,-84.7647222
Greene,44.1897222,-70.1408333
Interstate 5 Or Tributary Between Vasilia And Sacrammento,36.778261,-119.417932
Lafayette,42.8922222,-76.1055556
Lynden,48.9466667,-122.4508333
Albany,42.6525,-73.7566667
Chulucanas-Piura La Vieja (Peru),-5.129547,-80.120569
Courtland,36.7161111,-77.0683333
Hong Kong,22.396428,114.109497
Oakland,37.8044444,-122.2697222
Everson,48.9202778,-122.3413889
Port Townsend,48.1172222,-122.7591667
Snohomish,47.9130556,-122.0969444
Sumner,47.2033333,-122.2391667
Pueblo,38.2544444,-104.6086111
Seattle,47.6063889,-122.3308333
Seattle,47.6063889,-122.3308333
Seattle,47.6063889,-122.3308333
Kent,47.3811111,-122.2336111
Lynnwood,47.8211111,-122.3138889
Rainier,46.8883333,-122.6872222
Monroe,42.6011111,-89.6383333
Natrona Heights&#44 New Kensington,40.616187,-79.72411
Kingston,41.9269444,-73.9977778
Germantown,39.1730556,-77.2719444
Karavostasi (Greece),39.337515,20.289964
Winslow,35.0241667,-110.6966667
Athol,47.9480556,-116.7069444
Grants,35.1472222,-107.8508333
Port Hadlock,48.0319444,-122.7569444
Orlando,28.5380556,-81.3794444
New York City (Staten Island),40.7141667,-74.0063889
New York City (Staten Island),40.7141667,-74.0063889
Castro Valley,37.6941667,-122.0852778
Edmonds,47.8108333,-122.3761111
Riverton,40.5219444,-111.9383333
New York City,40.7141667,-74.0063889
Saco,43.5008333,-70.4433333
Redmond,47.6741667,-122.1202778
Peterborough (Canada),44.3,-78.333333
Long Beach (Sports Arena),33.7669444,-118.1883333
Hartland,42.6566667,-83.7530556
Perry Township,40.773662,-81.460856
San Diego,32.7152778,-117.1563889
Bellevue,47.6105556,-122.1994444
Rye,37.9236111,-104.9297222
Oologah,36.4469444,-95.7080556
Granville,42.0666667,-72.8619444
Quesnel (Canada),52.983333,-122.483333
Slocan Park (Canada),49.51397,-117.618387
Circleville,39.6005556,-82.9461111
Eureka,40.8022222,-124.1625
Las Vegas,36.175,-115.1363889
Albuquerque,35.0844444,-106.6505556
Richmond,37.5536111,-77.4605556
Tucson,32.2216667,-110.9258333
Sebastian Inlet (North Of),27.860302,-80.447274
Dunstable (Uk/England),51.883333,-0.516667
Sidney,43.25,-85.1330556
Saskatoon (Canada),52.133333,-106.666667
Evergreen Park/Tinley Park/Orland Park,41.462072,-87.894245
Harrisburg,39.1269,-92.4399
Oak Forest,41.6027778,-87.7438889
Oak Forest,41.6027778,-87.7438889
Orland Park,41.6302778,-87.8538889
Tinley Park,41.5733333,-87.7844444
Midlothian/Posen,41.626389,-87.711667
Orland Park,41.6302778,-87.8538889
Orland Park,41.6302778,-87.8538889
Midlothian,41.6252778,-87.7175
Oak Forest,41.6027778,-87.7438889
Oak Forest,41.6027778,-87.7438889
Posen/Midlothian,41.626389,-87.711667
Tinley Park,41.5733333,-87.7844444
Tinley Park,41.5733333,-87.7844444
Tinley Park,41.5733333,-87.7844444
Tinley Park,41.5733333,-87.7844444
Tinley Park,41.5733333,-87.7844444
Oak Forest,41.6027778,-87.7438889
Evergreen Park,41.7205556,-87.7016667
Alsip,41.6688889,-87.7386111
Crestwood,41.6611111,-87.7525
Cuyahoga Falls,41.1338889,-81.4847222
Hillside,41.8777778,-87.9027778
Manhattan,41.4225,-87.9858333
Oak Forest,41.6027778,-87.7438889
Oak Forest,41.6027778,-87.7438889
Oak Forest,41.6027778,-87.7438889
Posen,41.6316667,-87.6813889
Greenup,38.5730556,-82.8302778
Homestead,25.4683333,-80.4777778
Albuquerque,35.0844444,-106.6505556
Lake Worth,26.6155556,-80.0572222
Phoenix,33.4483333,-112.0733333
Los Angeles,34.0522222,-118.2427778
West Palm Beach,26.7052778,-80.0366667
Winnamac,41.05143,-86.603065
Rogers,45.1888889,-93.5527778
Liberty Hill,30.6647222,-97.9222222
San Jose,37.3394444,-121.8938889
Hamilton (Canada),43.25,-79.833333
Napa,38.2972222,-122.2844444
Laurelville,39.4733333,-82.7394444
Oklahoma City,35.4675,-97.5161111
Buxton (Uk/England),52.75,1.3
Central Lake,45.07,-85.2644444
Portage La Prairie (Canada0,49.972636,-98.282777
Tinley Park,41.5733333,-87.7844444
Jones,41.9025,-85.7994444
Rio Rancho,35.2333333,-106.6638889
Bursa (Turkey),40.182846,29.067084
Irving,32.8138889,-96.9486111
Montebello,34.0094444,-118.1044444
Iraq,33.223191,43.679291
New York City (Bronx),40.7141667,-74.0063889
Mt. Pleasant,32.7938889,-79.8627778
Plainfield,41.6269444,-88.2038889
Thompson,39.1886111,-91.9827778
Obrien,42.068889,-123.720833
Algona,43.07,-94.2327778
Onion Creek,48.7838889,-117.8105556
West Greenwhich,41.714918,-71.463612
Monkton,39.5786111,-76.6158333
Las Vegas,36.175,-115.1363889
Austin,30.2669444,-97.7427778
Fall City,47.5675,-121.8875
Orchards,45.6666667,-122.5597222
Pullman,46.7313889,-117.1786111
Seattle,47.6063889,-122.3308333
Orchard Park,42.7675,-78.7441667
Sandrock,33.635026,-85.795908
Seattle,47.6063889,-122.3308333
Roseville,38.7522222,-121.2869444
Tin Cup,37.963699,-104.838261
Santa Fe,35.6869444,-105.9372222
Phoenix And Saguaro Lake,33.800592,-112.204047
Winslow,35.0241667,-110.6966667
Cuchara,37.3791667,-105.0997222
Glorieta,35.5830556,-105.7694444
Silver City,32.77,-108.2797222
Wide Ruins,35.4194444,-109.4958333
Boulder,40.015,-105.27
Canon City,38.4,-105.2166667
Cerrillos,35.517491,-86.580447
Denver,39.7391667,-104.9841667
Edwards/Vail (Between),39.604851,-106.356612
Fairplay,39.2247222,-106.0013889
Hartsel,39.0216667,-105.7952778
Mccoy,39.9161111,-106.725
Pueblo West,38.35,-104.7222222
Santa Fe,35.6869444,-105.9372222
Taos,36.4072222,-105.5725
Cascade,38.8966667,-104.9716667
Boulder (Foothills Of),40.015,-105.27
Cripple Creek,38.7466667,-105.1777778
Grand Junction (15-20 Miles,32.486673,-91.963994
Raton,36.9033333,-104.4386111
Raton,36.9033333,-104.4386111
Sedalia,39.4369444,-104.9591667
Silverthorne,39.6375,-106.0613889
Monument,39.0916667,-104.8722222
Pueblo West,38.35,-104.7222222
Farmington,36.7280556,-108.2180556
San Antonio,33.9177778,-106.8652778
Escondido,33.1191667,-117.0855556
Los Angeles,34.0522222,-118.2427778
Dayton,39.7588889,-84.1916667
Barrie (Canada),44.383333,-79.7
Adelaide  (South Australia),-34.928661,138.598633
Sautee Nacoochee,34.683983,-83.67435
Charlotte,35.2269444,-80.8433333
Litchfield,39.1752778,-89.6541667
Granville,40.0680556,-82.5197222
Beulaville,34.9236111,-77.7741667
Ewa Beach,21.3155556,-158.0072222
North Battleford (Canada),52.766667,-108.283333
Tryon,35.2080556,-82.2386111
Ballinger,31.7380556,-99.9469444
Deer Park,40.7616667,-73.3297222
Sanford,28.8002778,-81.2733333
Dublin,37.7022222,-121.9347222
Conway,35.0886111,-92.4419444
Kuala Lumpur (Malaysia),3.139003,101.686855
Bryan,41.4747222,-84.5525
Merrick,40.6627778,-73.5519444
Huntington,38.4191667,-82.4452778
Lynchburg,37.4136111,-79.1425
Lanagan,36.6080556,-94.4475
Dallas,32.7833333,-96.8
Pell City,33.5861111,-86.2861111
Warwick,41.7,-71.4166667
Bonham,33.5772222,-96.1780556
Delta (Canada),50.183333,-98.316667
Cabazon,33.9175,-116.7863889
Glenrock,42.8613889,-105.8716667
Marysville,48.0519444,-122.1758333
Texas City,29.3836111,-94.9025
Wilson,35.7211111,-77.9158333
Idaho Falls,43.4666667,-112.0333333
Leavenworth,47.5963889,-120.6602778
Renton,47.4830556,-122.2158333
Wellington,33.8225,-85.8927778
Yerevan (Armenia),40.183333,44.516667
Lacey,47.0344444,-122.8219444
Garrett,41.3494444,-85.1355556
Arlington,32.7355556,-97.1077778
Sunnyvale,37.3688889,-122.0352778
Kingsport,36.5483333,-82.5619444
Grafton,39.340925,-80.018966
Hogansville,33.1730556,-84.915
Pawtucket,41.8786111,-71.3830556
Canton,42.3086111,-83.4822222
Whitefield,35.2525,-95.2372222
Memphis,35.1494444,-90.0488889
Grafton,39.340925,-80.018966
Providence,41.8238889,-71.4133333
Beaver,39.0305556,-82.8244444
Belmont,34.5097222,-88.2091667
Belleview,29.055,-82.0625
Fairfield,41.1411111,-73.2641667
Delray Beach,26.4611111,-80.0730556
Aripeka,28.4319444,-82.6644444
James Island,32.753472,-79.952845
Middleton,43.0972222,-89.5041667
Spotsylvania,38.2008333,-77.5894444
Sterling Heights/Utica Border,43.10729,-75.129221
Waxahachie,32.3863889,-96.8480556
Dallas,32.7833333,-96.8
Strasburg,38.9886111,-78.3588889
Fayetteville,35.0525,-78.8786111
Brunswick,41.2380556,-81.8419444
Arlington,48.1988889,-122.1238889
Saskatoon (Canada),52.133333,-106.666667
Corona,33.8752778,-117.5655556
Rock Spring,34.8241667,-85.2427778
Cabot/Lonoke,34.974532,-92.016534
Staten Island (Over),40.579532,-74.150201
Thunder Bay (Canada),48.4,-89.233333
Alligator Point,29.807988,-84.859352
San Benito,26.1322222,-97.6308333
Brownwood,31.7091667,-98.9908333
Clinton,32.3413889,-90.3216667
Goshen,36.3511111,-119.4191667
Carrieres Sous Poissy (France),48.945484,2.037356
Linn (Outside Of),38.4858333,-91.8502778
Wilmington,34.2255556,-77.945
Cincinnati,39.1619444,-84.4569444
Palatine,42.1102778,-88.0341667
Hamburg,41.7830556,-123.0591667
Carlsbad,33.1580556,-117.3497222
Kansas City,39.0997222,-94.5783333
Kansas City,39.0997222,-94.5783333
Tenino,46.8569444,-122.8516667
Mccomb,31.2436111,-90.4530556
Greenville Area,34.818831,-82.412391
Conyers,33.6675,-84.0177778
Captiva Island,26.527578,-82.194817
Bluffton,32.237147,-80.860387
Homestead,25.4683333,-80.4777778
Richmond,29.5819444,-95.7605556
Colorado Springs,38.8338889,-104.8208333
Surprise,33.6305556,-112.3325
Sarasota,27.3361111,-82.5308333
Hawthorne/Los Angeles,33.916403,-118.352575
Vinton/Roanoke,37.280971,-79.896982
Welland (Canada),42.983333,-79.25
Port Hueneme,34.1477778,-119.1941667
Hinsdale,41.8008333,-87.9369444
Eugene,44.0522222,-123.0855556
Fontana,34.0922222,-117.4341667
Racine,42.7261111,-87.7827778
Sunfield,42.7622222,-84.9925
Capitola,36.9752778,-121.9522222
Sauk Centre,45.7375,-94.9522222
Huntington,40.8830556,-85.4975
Novi,42.4805556,-83.4755556
Colorado Springs,38.8338889,-104.8208333
Bel Air,39.5358333,-76.3486111
Bakersfield,35.3733333,-119.0177778
Furlong,40.296218,-75.082115
Boulder/Niwot,40.103874,-105.170819
Cobb Mountain,38.807404,-122.740546
Muncie,40.1933333,-85.3863889
Pittsburgh,40.4405556,-79.9961111
Pittsburgh,40.4405556,-79.9961111
Lincoln,41.921111,-71.435
Boulder,40.015,-105.27
Thibodaux,29.7955556,-90.8227778
Webster,43.2122222,-77.4302778
Southwest Ranches,26.0583333,-80.3375
Tampa,27.9472222,-82.4586111
Cumming,34.2072222,-84.1402778
Sneedville,36.5297222,-83.2175
White Lake,42.6916667,-83.5541667
Waterloo,42.4927778,-92.3427778
Middle Island (Long Island),40.8841667,-72.9377778
London (Uk/England),51.514125,-0.093689
Arlington,43.3380556,-89.3802778
Pittsburgh,40.4405556,-79.9961111
Pittsburgh,40.4405556,-79.9961111
Viet Nam (Jungles Of),14.058324,108.277199
Menands (Albany),42.6919444,-73.725
Birmingham (Just South Of),33.5205556,-86.8025
Perth (W. Of; Southern Cross) (Western Australia),-31.95224,115.861397
Emporia,38.4038889,-96.1813889
Dyersburg,36.0344444,-89.3855556
Alpine,33.8480556,-109.1425
Barnegat,39.7530556,-74.2233333
Pearlington,30.2463889,-89.6111111
Pearlington,30.2463889,-89.6111111
Swansboro,34.6875,-77.1194444
Melbourne (Vic&#44 Australia),-37.813938,144.963425
Schenectady,42.8141667,-73.94
Monticello,36.8297222,-84.8491667
Okeechobee,27.2436111,-80.83
Pueblo,38.2544444,-104.6086111
Poole (Uk/England),50.716667,-2
Huntington Beach,33.6602778,-117.9983333
White Tank Mountains,33.539166,-112.558414
Kenner (34Th St.),29.9938889,-90.2416667
Chicago,41.85,-87.65
Franklin,43.4441667,-71.6477778
Miami Twp.,39.612875,-84.248952
Lincoln,40.8,-96.6666667
Murray,40.6669444,-111.8872222
Asheville,35.6008333,-82.5541667
Asheville,35.6008333,-82.5541667
Missoula,46.8722222,-113.9930556
Albany,44.6366667,-123.1047222
Miami,36.8744444,-94.8772222
Jersey,49.214439,-2.13125
Breezewood,39.9991667,-78.2388889
Scottsdale,33.5091667,-111.8983333
Palominas (Near Ft. Huachuca),31.3797222,-110.1177778
Minnesota (Central&#44 Rural),46.729553,-94.6859
Port Townsend,48.1172222,-122.7591667
Phoenix,33.4483333,-112.0733333
Tulsa,36.1538889,-95.9925
Little Falls (North Of),45.9763889,-94.3622222
Norwark,41.117744,-73.408158
Breckenridge,32.7555556,-98.9019444
La Serena (Vi&Ntilde;A Del Mar) (Chile),-29.906301,-71.250204
Mountain City,36.4744444,-81.805
New Haven,38.9863889,-81.9736111
Belmont,43.4155556,-72.8227778
Gilbert/Mesa/Chandler,33.348216,-111.789581
Gilbert,33.3527778,-111.7883333
Gilbert,33.3527778,-111.7883333
Tulsa,36.1538889,-95.9925
Brixham&#44 Devon (Uk/England),50.39514,-3.513924
Buckeye,33.3702778,-112.5830556
Miami (Kendall),25.7738889,-80.1938889
Miami,25.7738889,-80.1938889
Denver,39.7391667,-104.9841667
Phoenix,33.4483333,-112.0733333
Sainte-Suzanne (Near Switzerland) (France),48.097456,-0.349277
Cannock (Uk/England),52.683333,-2.016667
Eagle River,61.3213889,-149.5677778
San Leandro,37.725,-122.155
Winfield,33.1672222,-95.1116667
San Francisco,37.775,-122.4183333
Tinton Falls,40.3041667,-74.1008333
Prescott,34.54,-112.4677778
Renton,47.4830556,-122.2158333
Australia (Rural),-25.274398,133.775136
Rose Lake,47.5388889,-116.4708333
Rotherham (Uk/England),53.433333,-1.35
Paris,33.6608333,-95.5552778
Boca Raton,26.3583333,-80.0833333
Paris,33.6608333,-95.5552778
Langley (Canada),49.1,-122.65
Acton/Aqua Dulce,34.493484,-118.21636
Albany,42.6525,-73.7566667
Antioch,38.005,-121.8047222
Auburn,40.5983333,-76.0936111
Rosamond,34.8641667,-118.1625
South Bend,41.6833333,-86.25
Reevesville,33.2055556,-80.6480556
Pickering (Canada),43.866667,-79.033333
Dallas,32.7833333,-96.8
Salatiga (Indonesia),-7.33683,110.498817
Fort Morgan,40.2502778,-103.7994444
Tacoma,47.2530556,-122.4430556
Ripon,37.7416667,-121.1233333
Rockville,39.0838889,-77.1530556
Santa Anna,33.745573,-117.867834
Utica,43.1008333,-75.2330556
Hayward,37.6688889,-122.0797222
Antibes (France),43.580418,7.125102
&Iacute;Safj&Ouml;R&Eth;Ur (Iceland),66.075833,-23.126667
Miami,25.7738889,-80.1938889
North Port,27.0438889,-82.2361111
Belfair,47.4508333,-122.8261111
Rocklin,38.7908333,-121.2347222
Bakersfield,35.3733333,-119.0177778
Bossier City,32.5158333,-93.7319444
Longwood,28.7027778,-81.3386111
Farmland,40.1877778,-85.1275
Richmond Hill (Canada),43.866667,-79.433333
Noblesville,40.0455556,-86.0086111
Gurgaon (India),28.459497,77.026638
Phoenix,33.4483333,-112.0733333
Mesa,33.4222222,-111.8219444
Peoria,33.5805556,-112.2366667
Georgetown,30.6325,-97.6769444
San Jose,37.3394444,-121.8938889
Cornwall (Canada),46.24,-63.21
Seekonk,41.8083333,-71.3375
Altamonte Springs,28.6608333,-81.3658333
Victoria (Canada),46.216667,-63.483333
Pontiac,42.6388889,-83.2911111
Boulder,40.015,-105.27
Ogden,41.2230556,-111.9730556
Sedalia,38.7044444,-93.2280556
New York City,40.7141667,-74.0063889
Arcadia,27.2155556,-81.8586111
Fort Washington,40.1416667,-75.2094444
West Los Angeles,34.0522222,-118.2427778
Indiana/Ohio (In Flight),37.060704,-88.525335
Appleton,44.2619444,-88.4152778
Irvine,33.6694444,-117.8222222
Irvine,33.6694444,-117.8222222
York,39.9625,-76.7280556
Rogers,36.3319444,-94.1183333
Dingmans Ferry,41.22,-74.8716667
Islip (Central),40.7297222,-73.2108333
Russellton,40.6113889,-79.8372222
Reading,40.3355556,-75.9272222
Rio Rancho,35.2333333,-106.6638889
Larksville,41.245,-75.9311111
Nicholasville,37.8805556,-84.5730556
Tacoma,47.2530556,-122.4430556
Mckinney,33.1975,-96.615
Manchester,35.4816667,-86.0886111
Stafford (Uk/England),52.833333,-2
Gainesville,38.7955556,-77.6141667
Las Vegas,36.175,-115.1363889
Wayne,42.2813889,-83.3863889
Dover,43.1977778,-70.8741667
Mcdonough,33.4472222,-84.1469444
Yakima,46.6022222,-120.5047222
San Juan,26.1888889,-98.155
Houston/Tomball,30.099121,-95.615819
Port Au Port West (Canada),48.539371,-58.776848
Cross Roads,31.0747222,-96.1425
Tomball,30.0969444,-95.6158333
Sioux Falls,43.55,-96.7
Milpitas,37.4283333,-121.9055556
Milpitas,37.4283333,-121.9055556
Waco,31.5491667,-97.1463889
Hillsdale,41.92,-84.6305556
Arlington,38.8902778,-77.0844444
Dallas,32.7833333,-96.8
Daphne,30.6033333,-87.9036111
Bridgeton,38.7669444,-90.4113889
Boston,42.3583333,-71.0602778
Lufkin,31.3380556,-94.7288889
Pinellas Park,27.8425,-82.6997222
Fort Mohave,35.022485,-114.58927
Waterloo,42.4927778,-92.3427778
Knoxville,35.9605556,-83.9208333
Waco,31.5491667,-97.1463889
Whitesburg,36.2716667,-83.14
Ocean Isle Beach,33.8941667,-78.4269444
St. George,37.1041667,-113.5833333
Charleston,32.7763889,-79.9311111
San Antonio,29.4238889,-98.4933333
Zortman,47.9177778,-108.5255556
Titusville,28.6119444,-80.8077778
Chicago,41.85,-87.65
Pittsburgh,40.4405556,-79.9961111
Bessemer,40.9747222,-80.4938889
Big Rock,36.5805556,-87.76
Clarksville,36.5297222,-87.3594444
Ashland,42.1947222,-122.7083333
Waynesburg (North Of),39.8963889,-80.1794444
Salem,44.9430556,-123.0338889
Phoenix,33.4483333,-112.0733333
Buckeye,33.3702778,-112.5830556
Glendale,33.5386111,-112.1852778
Lake Worth,26.6155556,-80.0572222
Lake Worth,26.6155556,-80.0572222
Shapleigh,43.5405556,-70.8486111
Hadlyme,41.4202778,-72.4069444
Tucson,32.2216667,-110.9258333
Cumberland,39.6527778,-78.7627778
Deptford,39.819722,-75.122778
Waukesha,43.0116667,-88.2313889
Bellevue,39.1063889,-84.4788889
Oklahoma City,35.4675,-97.5161111
Wellington,26.6583333,-80.2416667
Grayling,44.6613889,-84.7147222
Anchorage,61.2180556,-149.9002778
Oshawa (Canada),43.9,-78.866667
Cabin Creek,38.1958333,-81.4777778
Marlton,39.8911111,-74.9222222
Ridley Park,39.8811111,-75.3241667
Varanasi (India),25.317645,82.973914
Wolcott,41.6022222,-72.9872222
Austin,30.2669444,-97.7427778
Cambridge,43.0280556,-73.3816667
Strongsville,41.3144444,-81.8358333
Festus,38.2205556,-90.3958333
Owego,42.1033333,-76.2625
Kodiak,57.79,-152.4072222
St. Louis,38.6272222,-90.1977778
Clarkston,42.7358333,-83.4188889
Columbus,39.9611111,-82.9988889
Finleyville,40.2522222,-80.0030556
Lima,40.7425,-84.1052778
North Judson,41.215,-86.7758333
Suffolk,36.7280556,-76.5838889
Morganton,35.7452778,-81.685
Keswick (Canada),44.25,-79.466667
Hamilton,39.3994444,-84.5613889
Austin,30.2669444,-97.7427778
Franklin,39.5588889,-84.3041667
Hamilton,39.3994444,-84.5613889
Koh Samui (Thailand),9.512017,100.013593
Springboro,39.5522222,-84.2333333
West Chester,39.0875,-81.9227778
Miamisburg,39.6427778,-84.2866667
Peoria,40.6936111,-89.5888889
Springboro,39.5522222,-84.2333333
Aspen (~2 Hrs. W Of; Driving),39.1911111,-106.8169444
Grand Junction (East Of; On I-70),39.0638889,-108.55
Sundridge (Canada),45.766667,-79.4
Chandlerville,39.898404,-81.827354
Hilliard,40.0333333,-83.1583333
Hiawassee,34.9491667,-83.7575
Lombard,41.88,-88.0077778
West Newbury,42.766667,-70.845833
Anderson,34.5033333,-82.6502778
Orangevale,38.6786111,-121.2247222
Cincinnati,39.1619444,-84.4569444
Orangevale (Sacramento),38.6786111,-121.2247222
Mission,26.2155556,-98.325
Millington,35.3413889,-89.8972222
Memphis,35.1494444,-90.0488889
Bristol,41.6716667,-72.9497222
Weldon,36.4269444,-77.5958333
Rising Sun,39.6977778,-76.0630556
Death Valley,36.505389,-117.079408
Farmington,37.7808333,-90.4216667
Crescent City,41.7561111,-124.2005556
New York City,40.7141667,-74.0063889
Tacoma,47.2530556,-122.4430556
Meridith,44.130575,-84.60724
Reno,39.5297222,-119.8127778
Gainesville,29.6513889,-82.325
Astoria (Outside Of),46.1880556,-123.83
Odessa,31.8455556,-102.3672222
Encino,34.1591667,-118.5002778
Ogden/Clinton,41.184944,-112.014664
Reno,39.5297222,-119.8127778
Hollister,36.8525,-121.4005556
Heron State Park (Between Dulce And Taos),36.665547,-106.691032
Painesville Twp,41.734069,-81.242025
East Kilbride (South Lanarkshire) (Uk/Scotland),55.766667,-4.166667
Santa Fe,35.6869444,-105.9372222
Florence,38.9988889,-84.6266667
Pittsburgh,40.4405556,-79.9961111
Boscobel,43.1344444,-90.7052778
Lansing,42.7325,-84.5555556
Forest Hills,40.7161111,-73.8505556
Mohawk Valley,32.686184,-114.193944
Mohawk Valley,32.686184,-114.193944
Tulsa,36.1538889,-95.9925
Newton,38.0466667,-97.3447222
Wichita,37.6922222,-97.3372222
Knoxville,35.9605556,-83.9208333
Louisville,38.2541667,-85.7594444
Oklahoma (Route 44),35.46756,-97.516428
Clyde,32.4058333,-99.4933333
Jenks,36.0227778,-95.9680556
Orangeville,41.0780556,-76.4147222
Amarillo,35.2219444,-101.8308333
Baird,32.3938889,-99.3938889
Elk City,35.4119444,-99.4038889
Eugene (West Of),44.0522222,-123.0855556
Miami,25.7738889,-80.1938889
Orwigsburg,40.6547222,-76.1011111
Portland,45.5236111,-122.675
Poughkeepsie,41.7002778,-73.9213889
Franconia Notch/White Mountains,43.193852,-71.572395
Franconia Notch (I-93&#44 Southbound),44.152565,-71.679528
Avondale,33.4355556,-112.3488889
Minneapolis,44.98,-93.2636111
Stockton,37.9577778,-121.2897222
Heltonville,38.9277778,-86.3755556
Mary Esther,30.4097222,-86.6630556
Chicago,41.85,-87.65
Alameda,37.7652778,-122.2405556
Smithfield,35.5083333,-78.3397222
Eastman,32.1975,-83.1777778
Port Angeles,48.1183333,-123.4294444
Budapest (Hungary),47.497912,19.040235
Ship Bottom,39.6427778,-74.1808333
Deerfield Beach,26.3180556,-80.1
Evansville,37.9747222,-87.5558333
Craig,40.5152778,-107.5458333
Mississauga (Canada),43.15,-79.5
Pocatello,42.8713889,-112.4447222
Guasave Sinaloa,25.566699,-108.467305
Kansas ??  (In-Flight Sighting),39.011902,-98.484246
Wilton,38.4119444,-121.2711111
Phoenix,33.4483333,-112.0733333
Runcorn (Uk/England),53.333333,-2.75
Binghamton,42.0986111,-75.9183333
Bolton (Canada),43.883333,-79.733333
Provo,40.2338889,-111.6577778
Denver,39.7391667,-104.9841667
Trenton,39.4808333,-84.4577778
Warsaw,41.2380556,-85.8530556
Laval (Canada),45.6,-73.733333
Waterbury,41.5580556,-73.0519444
Houston,29.7630556,-95.3630556
Zanesville,39.9402778,-82.0133333
Summerland Key,24.6652778,-81.4425
Galveston,29.3011111,-94.7975
New Haven,41.3080556,-72.9286111
Manchester (Uk/England),53.5,-2.216667
Titusville,41.6269444,-79.6738889
Oceanside,45.4611111,-123.9666667
Mena,34.5861111,-94.2394444
Twin Falls,42.5630556,-114.46
Oregon,43.804133,-120.554201
Parkersburg,39.2666667,-81.5616667
Ravenel,32.7630556,-80.2502778
New Rochelle,40.9113889,-73.7827778
White Hall,34.2738889,-92.0908333
Siloam Springs,36.1880556,-94.5402778
Jupiter,26.9338889,-80.0944444
Boise,43.6136111,-116.2025
Twin Falls,42.5630556,-114.46
Terlton,36.1880556,-96.49
Terlton,36.1880556,-96.49
Mesa,33.4222222,-111.8219444
Shropshire (Uk/England),52.666667,-2.75
Miami,25.7738889,-80.1938889
Millbrook,32.4797222,-86.3619444
Livermore,37.6819444,-121.7669444
Northfield,44.4583333,-93.1613889
Hayward,37.6688889,-122.0797222
Atlanta,33.1136111,-94.1641667
Berlin (Germany),52.516667,13.4
Tamarac,26.2125,-80.25
Simco (20-40 Km West Of) (Canada),42.837263,-80.304042
Brewer,44.7966667,-68.7619444
Vandenberg Village,34.7083333,-120.4666667
Trout Lake,45.9975,-121.5269444
La Mesa,32.7677778,-117.0222222
Philadelphia,39.9522222,-75.1641667
Rawlins,41.7911111,-107.2380556
Beaumont,30.0858333,-94.1016667
Omaha,41.2586111,-95.9375
De Soto,38.9791667,-94.9683333
Vancleave,30.5402778,-88.6875
Iroquois Falls (Canada),48.766667,-80.666667
Kagoshima (Japan),31.596554,130.557116
Noida (India),28.535516,77.391026
Katy,29.7855556,-95.8241667
Henderson,36.0397222,-114.9811111
Fairfax,38.8461111,-77.3066667
Ashland,42.1947222,-122.7083333
Los Angeles,34.0522222,-118.2427778
Marysville,48.0519444,-122.1758333
Mooresville,35.5847222,-80.8102778
Kennewick,46.2113889,-119.1361111
Kirkcaldy (Uk/Scotland),56.116667,-3.166667
Irvine/Newport Beach,33.606775,-117.88971
Seattle,47.6063889,-122.3308333
Hudson,44.9747222,-92.7566667
Santa Rosa,38.4405556,-122.7133333
Newburyport,42.8125,-70.8777778
Clovis,36.8252778,-119.7019444
San Francisco,37.775,-122.4183333
Yakima,46.6022222,-120.5047222
Butte,46.0038889,-112.5338889
Belleville (Canada),44.166667,-77.383333
Jackson,39.7763889,-74.8627778
Bend,44.0583333,-121.3141667
Whakatane (New Zealand),-37.953411,176.990801
Little River,33.8730556,-78.6144444
Stockton,37.9577778,-121.2897222
Minersville,40.6905556,-76.2625
Crookston,47.7741667,-96.6077778
Pueblo,38.2544444,-104.6086111
Webster,29.5375,-95.1180556
Rochester,43.1547222,-77.6158333
Las Vegas,36.175,-115.1363889
Naperville,41.7858333,-88.1472222
Richmond,37.9358333,-122.3466667
Flora,38.6688889,-88.4855556
Grandview,38.8858333,-94.5327778
Grandview,38.8858333,-94.5327778
Cincinnati,39.1619444,-84.4569444
Lincoln,38.8916667,-121.2919444
Brick,40.057838,-74.137183
Gilbert,33.3527778,-111.7883333
Martinez,38.0194444,-122.1330556
Sunol,37.5944444,-121.8875
Grandview,38.8858333,-94.5327778
Charleston,32.7763889,-79.9311111
Charlotte,35.2269444,-80.8433333
San Francisco,37.775,-122.4183333
San Francisco,37.775,-122.4183333
Allen,33.1030556,-96.6702778
Rio Linda,38.6911111,-121.4475
Etna,41.4569444,-122.8936111
Las Vegas,36.175,-115.1363889
Norman,35.2225,-97.4391667
Newark,40.7355556,-74.1727778
Wilmington,39.4452778,-83.8286111
Mysore (India),12.29581,76.639381
Merriam,39.0236111,-94.6933333
Oldham (Uk/England),53.55,-2.116667
Boiling Springs,35.0463889,-81.9819444
Boiling Springs,35.0463889,-81.9819444
North Myrtle Beach,33.8158333,-78.6802778
Avon,35.3519444,-75.5108333
Gurley,34.7016667,-86.3758333
Surfside Beach,33.6058333,-78.9733333
Atlantic Coast (At Sea On Cruise Ship) (Canada),38.80261,-116.419389
Myrtle Beach,33.6888889,-78.8869444
Homestead,25.4683333,-80.4777778
Bel Air,39.5358333,-76.3486111
Cary,35.7913889,-78.7813889
Benidorm (Spain),38.541057,-0.122494
Salt Lake City,40.7608333,-111.8902778
Ligonier,40.2430556,-79.2377778
Cedar Bluff,34.22,-85.6077778
Columbia,39.2402778,-76.8397222
Denver,39.7391667,-104.9841667
Stockton Springs,44.4894444,-68.8575
Pueblo,38.2544444,-104.6086111
Taos,36.4072222,-105.5725
Pekin,40.5675,-89.6405556
Calgary (Canada),51.083333,-114.083333
Milford,41.2222222,-73.0569444
Holyoke,42.2041667,-72.6166667
Glasgow (Uk/Scotland),55.833333,-4.25
Lemont,41.6736111,-88.0016667
Milford,41.2222222,-73.0569444
Milford,41.2222222,-73.0569444
Evergreen Park,41.7205556,-87.7016667
Cromwell,41.595,-72.6458333
Waterbury,41.5580556,-73.0519444
York Springs,40.0088889,-77.1158333
Baton Rouge,30.4505556,-91.1544444
Mount Laurel,39.9338889,-74.8913889
Isle Of Palms,32.7866667,-79.795
Oregon City,45.3575,-122.6055556
Seaford (Uk/England),50.766667,0.1
Tonbridge (Uk/England),51.183333,0.283333
Vineland (Canada),43.151355,-79.39277
Mountain Home,36.3352778,-92.385
New Bern,35.1083333,-77.0444444
Kingston,41.2616667,-75.8972222
Bloomington,44.8408333,-93.2980556
Salt Lake City,40.7608333,-111.8902778
Toronto (Canada),43.666667,-79.416667
Newark,33.0011111,-97.4841667
Santa Fe,35.6869444,-105.9372222
Afton,38.550608,-90.333172
Council Bluffs,41.2619444,-95.8608333
Council Bluffs,41.2619444,-95.8608333
Irondequoit,43.2133333,-77.58
Orange,40.7705556,-74.2330556
Oswego,41.6827778,-88.3513889
Mechanicsburg,40.2141667,-77.0088889
Pasadena,39.1072222,-76.5713889
Spring Hill,28.5555556,-82.4505556
Spokane,47.6588889,-117.425
West Palm Beach,26.7052778,-80.0366667
Jefferson/Johnson Creek,43.076113,-88.774271
Sanford,28.8002778,-81.2733333
Bushnell,28.6647222,-82.1130556
Raymond,40.3347222,-83.4658333
Indianapolis,39.7683333,-86.1580556
Gobles,42.3608333,-85.8794444
Silverdale,47.6447222,-122.6936111
Livonia,42.3683333,-83.3527778
Regina (Canada),50.45,-104.616667
Ligonier,40.2430556,-79.2377778
Walls,34.9577778,-90.1516667
Fishers,39.9555556,-86.0138889
New York City (Brooklyn),40.7141667,-74.0063889
Warren,42.4775,-83.0277778
Kolhapur (India),16.691308,74.244866
Sheldon,43.1811111,-95.8558333
Ponca City (South Of),36.7069444,-97.0852778
Fulton,38.8466667,-91.9477778
Oran,37.085,-89.6552778
Atlanta,33.7488889,-84.3880556
San Jose,37.3394444,-121.8938889
Reidsville,32.0866667,-82.1180556
Goodlettsville,36.3230556,-86.7133333
Citra,29.4116667,-82.11
Cornersville,35.3613889,-86.8397222
Des Moines,47.4019444,-122.3230556
Belmont,43.0755556,-85.6091667
Dayton,46.3238889,-117.9713889
Madison,43.0730556,-89.4011111
Sandpoint,48.2766667,-116.5522222
Spokane,47.6588889,-117.425
Troy,48.4633333,-115.8886111
Gainesville,29.6513889,-82.325
Syracuse (North),43.0480556,-76.1477778
South Eastern Coast (Republic Of Ireland),22.564254,114.229432
Winnipeg (Canada),49.883333,-97.166667
Otis,45.0244444,-123.9452778
Overton,36.5433333,-114.4461111
Tucson,32.2216667,-110.9258333
Prescott,34.54,-112.4677778
Yonkers,40.9311111,-73.8991667
Kingston (Canada),44.233333,-76.483333
El Paso,31.7586111,-106.4863889
Mead  (Near Spokane),47.7675,-117.3538889
Warrensville,36.4605556,-81.5191667
Nashville,36.1658333,-86.7844444
Raymond,43.0361111,-71.1838889
Salinas,36.6777778,-121.6544444
Escondido,33.1191667,-117.0855556
Breezewood,39.9991667,-78.2388889
Mechanicsville,37.6086111,-77.3736111
Sarasota,27.3361111,-82.5308333
Gonzales,30.2383333,-90.92
Kuantan (Malaysia),3.824973,103.3239
Denver,39.7391667,-104.9841667
Chicago (Downtown&#44 On L. Michigan),41.85,-87.65
Adkins,29.3927778,-98.2369444
Franklin,42.0833333,-71.3972222
Demming (Canada),32.268698,-107.75864
Lake Elmo,44.9958333,-92.8791667
Des Moines,41.6005556,-93.6088889
Savanna,42.0944444,-90.1566667
Savage,44.7791667,-93.3361111
Joseph,38.6263889,-112.2163889
Ely,39.2475,-114.8877778
Brisbane (Qld&#44 Australia),-27.47101,153.024292
Littleton,39.6133333,-105.0161111
Windsor (Canada),45.583333,-72
Dallesport,45.6175,-121.1783333
Lebanon/Brownsville,44.5318,-122.898
Los Angeles,34.0522222,-118.2427778
Manteca,37.7975,-121.215
Palos Verdes Estates,33.8005556,-118.3891667
Temecula,33.4936111,-117.1475
Vancouver (North Of),45.6388889,-122.6602778
Walnut Creek,37.9063889,-122.0638889
Westlake Village,34.1458333,-118.8047222
Creswell,43.9180556,-123.0233333
Porterville,36.0652778,-119.0158333
Redwood Valley,39.2655556,-123.2033333
Grass Valley,39.2191667,-121.06
Ivins,37.1686111,-113.6786111
Madras,44.6336111,-121.1283333
Medford,42.3266667,-122.8744444
Murphys,38.1375,-120.4586111
Fall River Mills,41.0047222,-121.4372222
Anderson,40.4483333,-122.2966667
Cagayan De Oro City (Philippines),8.454236,124.631898
Goldendale,45.8208333,-120.8205556
Las Vegas,36.175,-115.1363889
San Jose,37.3394444,-121.8938889
Hollister,42.353244,-114.575039
Newcastle-Upon-Tyne (Uk/England),54.978252,-1.61778
San Jose,37.3394444,-121.8938889
Elmo,39.3897222,-110.8144444
Gaysville,43.7783333,-72.6994444
Clarks Summit,41.4886111,-75.7088889
Oshawa (Canada),43.9,-78.866667
Yelm,46.9422222,-122.6047222
Chicoutimi (Canada),48.433333,-71.066667
Plains,41.2752778,-75.8505556
San Leandro,37.725,-122.155
Los Angeles,34.0522222,-118.2427778
Orlando,28.5380556,-81.3794444
Indianapolis,39.7683333,-86.1580556
Indianapolis,39.7683333,-86.1580556
Trego,45.8997222,-91.8208333
Needville,29.3991667,-95.8375
Reno,39.5297222,-119.8127778
Prescott (Southwest Of),34.54,-112.4677778
Kansas (Rural),39.011902,-98.484246
Columbus,39.9611111,-82.9988889
Llanelli (Uk/England),51.676111,-4.156667
Amarillo,35.2219444,-101.8308333
San Antonio,29.4238889,-98.4933333
Littleton,39.6133333,-105.0161111
Lenexa,38.9536111,-94.7333333
Bonner Springs,39.0597222,-94.8833333
Lincoln (East Of),46.955,-112.6808333
Correo,34.955,-107.1841667
Denver,39.7391667,-104.9841667
Earp,34.1647222,-114.3002778
Park Rapids,46.9222222,-95.0583333
Jaffrey,42.8138889,-72.0236111
Waterbury,41.5580556,-73.0519444
Yuma,36.615,-82.6125
Fairfield,41.1411111,-73.2641667
New York City (Yonkers),40.7141667,-74.0063889
Argostoli (Greece),38.173168,20.489973
Provincetown,42.0583333,-70.1791667
San Diego,32.7152778,-117.1563889
Ogunquit,43.2488889,-70.5997222
Buchanan,33.8025,-85.1886111
Beverly Hills,28.9166667,-82.4583333
Westfir,43.7575,-122.4952778
Barquisimeto (Venezuela),10.063611,-69.334722
Hyderabad (India),17.385044,78.486671
Rawalpindi (Pakistan),33.598394,73.044135
Las Vegas,36.175,-115.1363889
Honolulu,21.3069444,-157.8583333
Redondo Beach,33.8491667,-118.3875
Barbourville,36.8663889,-83.8888889
Little Rock,34.7463889,-92.2894444
Surprise,33.6305556,-112.3325
Blairstown,40.9827778,-74.9608333
Barstow,34.8986111,-117.0219444
Austin,30.2669444,-97.7427778
Valparaiso,41.4730556,-87.0611111
Hemet,33.7475,-116.9711111
Falls Church,38.8822222,-77.1713889
Vallejo,38.1041667,-122.2555556
Narberth,40.0083333,-75.2608333
Boonville,43.4836111,-75.3369444
Anderson,34.5033333,-82.6502778
Port St. Joe,29.811876,-85.302974
Louisville,38.2541667,-85.7594444
Manteca,37.7975,-121.215
Fresno,36.7477778,-119.7713889
Honolulu,21.3069444,-157.8583333
Concord,37.9780556,-122.03
Avoca,43.0619444,-82.6911111
Syracuse,43.0480556,-76.1477778
Reno,39.5297222,-119.8127778
New York City,40.7141667,-74.0063889
Creswell,43.9180556,-123.0233333
Lesser Slave Lake (Canada),55.431256,-115.603896
The Colony,33.0888889,-96.8861111
Imperial,38.3697222,-90.3783333
Foley,30.4063889,-87.6836111
Mitchell,43.7094444,-98.0294444
Ripon,37.7416667,-121.1233333
Livermore,37.6819444,-121.7669444
Tehran (Iran),35.696111,51.423056
Calgary (Canada),51.083333,-114.083333
Northwich (Uk/England),53.266667,-2.5
Blackjack (North St. Louis Co.),37.8722222,-93.7916667
Ringgold,34.9158333,-85.1091667
Oldsmar,28.0338889,-82.6652778
Carterville,37.1491667,-94.4427778
Carterville,37.1491667,-94.4427778
Falls Twp,40.16083,-74.79222
Whitakers,36.1052778,-77.7130556
Scottsdale,33.5091667,-111.8983333
Elmer,39.595,-75.1705556
Honolulu,21.3069444,-157.8583333
Coral Springs,26.2708333,-80.2708333
San Bernardino,34.1083333,-117.2888889
Sierra Vista,31.5544444,-110.3030556
Ocala,29.1869444,-82.1402778
El Paso,31.7586111,-106.4863889
Strawberry,34.4077778,-111.4927778
Ellisville,31.6038889,-89.1955556
Golden Valley,35.2233333,-114.2222222
Golden Valley,35.2233333,-114.2222222
Clinton Township,42.586888,-82.919551
Wendover (East Of&#44 On I-80),40.7372222,-114.0366667
Eufaula,31.8911111,-85.1455556
Holbrook,34.9022222,-110.1575
Tempe,33.4147222,-111.9086111
York,39.9625,-76.7280556
Ft. Riley,39.088346,-96.813939
Cibecue (West Of),34.0447222,-110.4847222
Modesto,37.6391667,-120.9958333
Fort Worth,32.7252778,-97.3205556
Centralia,46.7163889,-122.9530556
Sierra Madre,34.1616667,-118.0519444
Raleigh,35.7719444,-78.6388889
Santa Barbara,34.4208333,-119.6972222
Loveland,40.3977778,-105.0744444
Santa Ana/Garden Grove/Irvine/Anaheim,33.638453,-117.901465
Easton,40.6883333,-75.2211111
Kabul (Afghanistan),34.533056,69.166111
El Centro,32.7919444,-115.5622222
Newburgh,37.9444444,-87.4052778
Elmore City,34.6227778,-97.3961111
Canyon Lake,33.685,-117.2722222
Lakewood,40.0977778,-74.2180556
Toms River,39.9536111,-74.1983333
Lake Wales,27.9011111,-81.5861111
Lake Wales,27.9011111,-81.5861111
Nanuet,41.0886111,-74.0138889
Charleston,32.7763889,-79.9311111
Forked River,39.8397222,-74.1905556
Albuquerque,35.0844444,-106.6505556
Hampton,42.9375,-70.8394444
Buckingham,40.3236111,-75.0602778
Hawkesbury (Canada),45.616667,-74.6
Hawkesbury (Canada),45.616667,-74.6
Charlotte,35.2269444,-80.8433333
Vernon Hills,42.2194444,-87.9794444
Seaside,45.9933333,-123.9213889
Oakland,37.8044444,-122.2697222
Green Bay,44.5191667,-88.0197222
Ruston,32.5230556,-92.6377778
Toronto (Canada),43.666667,-79.416667
Leland,45.0230556,-85.7597222
Holgate,39.54,-74.2572222
Salt Lake Valley,40.766613,-111.967439
Kalamazoo,42.2916667,-85.5872222
Point Arena,38.9088889,-123.6919444
Watchung Area (I Believe),40.683512,-74.376508
Warren,41.2375,-80.8186111
Eklutna,61.4580556,-149.3622222
Owensboro,37.7741667,-87.1133333
Baltimore,39.2902778,-76.6125
Sandy Hook/Highlands,40.443164,-73.989861
Richland,46.2858333,-119.2833333
Edmonton (Southwest Of) (Canada),53.55,-113.5
Mauriceville,30.2033333,-93.8661111
Blanco,30.0977778,-98.4211111
Manistee,44.2444444,-86.3241667
Rhinebeck,41.9266667,-73.9130556
Mechra Bel Ksire (Morocco),34.56,-5.95
Mt. Vernon,37.932266,-87.895027
New York City (Queens),40.7141667,-74.0063889
Houston (Ellington Afb),29.7630556,-95.3630556
Commerce City (N. Of Denver),39.8083333,-104.9333333
Marysville,48.0519444,-122.1758333
Indialantic,28.0891667,-80.5658333
Chicago,41.85,-87.65
Columbus,39.9611111,-82.9988889
New Rochelle,40.9113889,-73.7827778
Tabor,40.8983333,-95.6711111
Boca Raton (Military Trail),26.3583333,-80.0833333
Martinsville,39.4277778,-86.4283333
Running  Springs,34.2077778,-117.1083333
Ukiah,45.1341667,-118.9313889
Utica,43.1008333,-75.2330556
Lake Champlain (N End Of) (Canada),44.586581,-73.38009
Castleside (Uk/England),54.833333,-1.866667
Birmingham,33.5205556,-86.8025
Knott - End. Fleetwood (Uk/England),53.92766,-3.00585
Hampstead,34.3675,-77.7108333
North Hollywood,34.1722222,-118.3780556
Saugus,34.4113889,-118.5391667
Hastings,44.7433333,-92.8522222
Crystal Lake,42.2411111,-88.3161111
Bancroft (Rural Area Near),44.3097222,-89.5136111
Pacific Ocean (1500Mi.Sw Of U.S.Mainland),-8.783195,-124.508523
Sharon,41.8791667,-73.4772222
Pearl,32.2744444,-90.1319444
Wilmington,39.7458333,-75.5469444
Hurst,32.8233333,-97.1702778
Miami,25.7738889,-80.1938889
Exeter (Near),42.9813889,-70.9483333
Alpine,33.8480556,-109.1425
Westland,42.3241667,-83.4002778
London (Uk/England),51.514125,-0.093689
San Diego/Pacific Beach,32.802458,-117.235585
Bremerton,47.5675,-122.6313889
Litchfield,41.7472222,-73.1891667
Tinley Park,41.5733333,-87.7844444
Lago Vista (Near Austin),30.46,-97.9880556
Toronto (Canada),43.666667,-79.416667
Spokane,47.6588889,-117.425
Collierville,35.0419444,-89.6644444
Chazy,44.8897222,-73.4363889
Englewood,35.4244444,-84.4875
Houston,29.7630556,-95.3630556
Millington,35.3413889,-89.8972222
Germany (Czech Border),51.165691,10.451526
North Of Colorado Springs,38.833882,-104.821363
Memphis,35.1494444,-90.0488889
Bath,41.1888889,-81.6363889
San Francisco (South Of),37.775,-122.4183333
La Junta,37.985,-103.5433333
Rockville,39.0838889,-77.1530556
Rockville,39.0838889,-77.1530556
Polland Junction,34.451249,-112.267407
Killeen,31.1169444,-97.7275
Batesville,34.3113889,-89.9441667
Marianna,30.7741667,-85.2269444
Marion,38.3483333,-97.0169444
Scituate,41.785278,-71.61
Nesconset,40.8519444,-73.1544444
Williston,48.1333333,-103.6333333
Monroe,41.3305556,-74.1872222
Swannanoa,35.5977778,-82.4
Montpelier/Burlington (Between),44.475883,-73.212072
Ryegate (South Of),46.2972222,-109.2580556
Collinsville,34.2638889,-85.8605556
Mineral King,36.4508333,-118.5938889
Rochester,43.1547222,-77.6158333
Eveleth,47.4625,-92.5397222
Almena,45.4169444,-92.0327778
Biloxi,30.3958333,-88.8852778
Orlando,28.5380556,-81.3794444
Kennewick,46.2113889,-119.1361111
Des Plaines,42.0333333,-87.8833333
Shelby Township,42.670782,-83.032993
Coeur D&#39Alene,47.6777778,-116.7794444
Port St. Joe,29.811876,-85.302974
Cherokee,35.4741667,-83.315
Haena&#44 Kauai,22.223467,-159.556834
Candia,43.0777778,-71.2772222
Greenwich,41.0263889,-73.6288889
Ellwood City,40.8616667,-80.2866667
Bemidji,47.4736111,-94.88
Gig Harbor,47.3294444,-122.5788889
Columbus,39.9611111,-82.9988889
Guntersville,34.3580556,-86.2947222
Sandy,40.5725,-111.859722
Avon,41.8097222,-72.8311111
Denham Springs,30.4866667,-90.9561111
National Forest,38.145876,-104.980582
Boonville,39.0091667,-123.365
Jonesport,44.5327778,-67.5988889
Boonville,39.0091667,-123.365
Stonewall (Canada),50.133333,-97.316667
Apache Lake,33.581892,-111.253203
Beaverton,45.4872222,-122.8025
San Jose,37.3394444,-121.8938889
Van Nuys,34.1866667,-118.4480556
Snoqualmine,47.528713,-121.825391
Lake City,30.1894444,-82.6394444
Smithfield,41.9219444,-71.55
Barton,44.7480556,-72.1766667
North Hudson,43.9525,-73.7288889
Hampton,37.0297222,-76.3455556
Omaha,41.2586111,-95.9375
Narragansette,41.450084,-71.449503
Crete/Wilber (Between),40.460475,-97.049844
California Valley,35.32,-120.0058333
Duchenne,40.163291,-110.402933
New Castle,39.6619444,-75.5666667
Quincy,39.9369444,-120.9461111
Skowhegan,44.765,-69.7197222
Albuquerque,35.0844444,-106.6505556
Strafford,37.2683333,-93.1169444
Uvalde,29.2094444,-99.7858333
New Boston,33.4597222,-94.4152778
San Ramon,37.78,-121.9769444
Cleveland (Massilon Rd.&#44  Montrose Area),41.4994444,-81.6955556
Hixson,35.1405556,-85.2327778
Hartford City,40.4511111,-85.37
Camden,34.2463889,-80.6072222
Orangeburg,33.4916667,-80.8558333
Salem,44.9430556,-123.0338889
Pinson,33.6888889,-86.6833333
Bellevue (Yarrow Point),47.6105556,-122.1994444
Knoxville,35.9605556,-83.9208333
Petaluma,38.2325,-122.6355556
Ridgecrest,35.6225,-117.67
Fayettville,35.152027,-86.570551
Onyx,35.6902778,-118.2197222
Raleigh,35.7719444,-78.6388889
Burnet,30.7580556,-98.2280556
Bolingbrook,41.6986111,-88.0683333
Cheltenham (Melbourne) (Victoria) (Australia),-37.966667,145.066667
Itta Bena,33.495,-90.3197222
Osawatomie,38.4972222,-94.9502778
Yonkers,40.9311111,-73.8991667
Eastchester,40.8883333,-73.8286111
Baker,46.3669444,-104.2841667
Greers Ferry (Greers Ferry Lake),35.5769444,-92.1772222
Ottawa (Canada),45.416667,-75.7
Bremerton,47.5675,-122.6313889
Tacoma,47.2530556,-122.4430556
London (Uk/England),51.514125,-0.093689
Orono/Bangor,44.82502,-68.780903
Pilot Knob,37.6211111,-90.6402778
Belle,38.2858333,-91.7202778
Loveland,40.3977778,-105.0744444
Odessa,31.8455556,-102.3672222
Masfield,40.75839,-82.515447
Big Spring,32.2502778,-101.4783333
Hampton,37.0297222,-76.3455556
Morgantown,39.6294444,-79.9561111
Batesville,35.7697222,-91.6408333
Bloomingdale,41.0019444,-74.3269444
Mint Hill,35.1794444,-80.6475
Glennallen,62.1091667,-145.5463889
Georgetown (Canada),46.183333,-62.533333
Endwell,42.1127778,-76.0213889
North Windham,43.8341667,-70.4388889
Las Vegas (North Of),36.175,-115.1363889
Prineville (30 Miles East Of),44.3,-120.8333333
Omaha (Lavista/Ralston),41.2586111,-95.9375
Auburn,47.3075,-122.2272222
Taipei City (Taiwan),25.091075,121.559834
Saudi Arabia,23.885942,45.079162
Austin,30.2669444,-97.7427778
Snyder,32.7177778,-100.9172222
Wilsonville,45.3,-122.7725
Gardnerville,38.9413889,-119.7486111
Lubbock,33.5777778,-101.8547222
Miami/Keys,27.838145,-80.485438
Cincinnati,39.1619444,-84.4569444
Nhlangano (Swaziland),-27.116667,31.2
Butte,46.0038889,-112.5338889
Sulphur,30.2363889,-93.3772222
Garden Grove,33.7738889,-117.9405556
Portsmouth,43.0716667,-70.7630556
Owensboro,37.7741667,-87.1133333
Moss Bluff,30.3025,-93.1905556
Stone Ridge,41.8530556,-74.1394444
Circleville,39.6005556,-82.9461111
Bellevue,47.6105556,-122.1994444
Ithaca,42.4405556,-76.4969444
Neah Bay,48.3683333,-124.6236111
Oxley,35.8422222,-92.4569444
Angola,41.6347222,-84.9994444
Outside Of Delaware,40.298672,-83.067965
Bry Sur Marne  (Near Paris) (France),48.834913,2.523649
Pittsburgh,40.4405556,-79.9961111
Molalla (Near),45.1475,-122.5758333
Marshall,32.5447222,-94.3672222
Santee,32.8383333,-116.9730556
Fostoria,41.1569444,-83.4169444
Hawesville,37.9,-86.755
Lawton,34.6086111,-98.39
Westminster,34.6647222,-83.0966667
Godfrey,38.9555556,-90.1866667
Emporia,36.6858333,-77.5427778
Kallangur (Australia),-27.251405,152.991072
Evansville,37.9747222,-87.5558333
Washington&#44 D.C.,38.907231,-77.036464
Woodstock,41.9483333,-71.9744444
Split (In Former Yugoslavia),43.508132,16.440193
Chatsworth,34.2572222,-118.6002778
San Mateo,37.5630556,-122.3244444
Austin,30.2669444,-97.7427778
Cazadero,38.5333333,-123.0841667
Delano,35.265,-84.5533333
Roanoke,37.2708333,-79.9416667
Paris,36.3019444,-88.3266667
Duncan,34.5022222,-97.9575
Atlanta (North Of),33.7488889,-84.3880556
Brigham City (West Of),41.5102778,-112.0147222
Pasadena,34.1477778,-118.1436111
Dallas,32.7833333,-96.8
New York City (Staten Island),40.7141667,-74.0063889
Daggett,34.8633333,-116.8872222
Abingdon,36.7097222,-81.9775
Boulder,40.015,-105.27
Shark River Hills,40.1938889,-74.0491667
Austin/Eureka (Between&#44 Hwy. 50),39.512151,-115.982003
Bladen,40.3222222,-98.5944444
Rosburg,46.3311111,-123.6372222
Westfeild,43.883595,-89.493439
Harrodsburg,37.7622222,-84.8433333
Stephenville,32.2205556,-98.2019444
Waldorf,38.6244444,-76.9394444
Alvarado,32.4063889,-97.2113889
Freeport,42.2966667,-89.6211111
St. Louis,38.6272222,-90.1977778
Fort William (Uk/Scotland),56.819817,-5.105218
Naalehu,19.0638889,-155.5858333
Red Bank,33.9319444,-81.2386111
Round Rock,30.5080556,-97.6786111
Houston,29.7630556,-95.3630556
Knoxville,35.9605556,-83.9208333
New Albany,38.2855556,-85.8241667
Winston-Salem,36.0997222,-80.2444444
Glenwood,34.3266667,-93.5505556
Warwick,41.7,-71.4166667
Asheville,35.6008333,-82.5541667
Tyson&#39S Corner,38.917488,-77.237997
Fort Lawn,34.702089,-80.894798
Enterprise,31.315,-85.8552778
Laguna Niguel,33.5225,-117.7066667
Westlake,41.4552778,-81.9180556
Hinton,37.6738889,-80.8894444
Dublin (South Of),39.8122222,-85.2088889
Port Washington,43.3872222,-87.8755556
Dallas,32.7833333,-96.8
Inverness (Uk/Scotland),57.466667,-4.233333
Lexington,42.4472222,-71.225
Columbia (East Of&#44 Near Little Dixie Conservation Area),38.9516667,-92.3338889
Clines Corners (I-40 Eastbound),35.0094444,-105.6686111
Conconully (Conconully Lake),48.5575,-119.7486111
Ritzville/Cheney (Between),47.48739,-117.575762
Millersburg,38.8986111,-92.1233333
Holden,42.3516667,-71.8638889
Lewistown,40.0861111,-91.8130556
Fairfield,44.5883333,-69.5991667
Old Westbury,40.7886111,-73.6
Yangtzee River (China),31.84694,120.872862
Fremont,41.7308333,-84.9327778
Sierra Vista,31.5544444,-110.3030556
Taylor,42.2408333,-83.2697222
Kansas City,39.0997222,-94.5783333
Newbern,36.1127778,-89.2616667
Mississauga (Canada),43.15,-79.5
Breckenridge,32.7555556,-98.9019444
Montreal (Canada),45.5,-73.583333
Seattle,47.6063889,-122.3308333
Ellis,38.9380556,-99.5602778
Ellis,38.9380556,-99.5602778
Yerington,38.9858333,-119.1619444
Phoenix,33.4483333,-112.0733333
Buffalo,42.8863889,-78.8786111
Copeville,33.0794444,-96.4152778
Stockbridge,33.5441667,-84.2338889
Geyserville,38.7077778,-122.9013889
Sheffield (Uk/England),53.366667,-1.5
Weed/Yreka (Near),41.858898,-122.553076
Los Americas (Laguna Park 1 Hotel) (Tenerife),4.52572,-75.6976
Whitby (Canada),43.866667,-78.933333
Southgate,42.2138889,-83.1938889
Alabama,32.318231,-86.902298
Clear Lake,33.0780556,-96.495
Mt. Kisco,41.2041667,-73.7275
Nassau Bay,29.5444444,-95.0908333
Washington&#44 D.C.,38.907231,-77.036464
Sherwood Park (Canada),53.516667,-113.316667
Del Valle,30.2105556,-97.6544444
Commerce City To Henderson,39.80832,-104.933868
Palm Springs,34.163156,-84.498691
Long Beach,33.7669444,-118.1883333
London (Uk/England),51.514125,-0.093689
Strawberry,34.4077778,-111.4927778
New Castle,41.0036111,-80.3472222
Portland,45.5236111,-122.675
Lucerne (East Of),40.8663889,-86.4033333
Middletown,38.7525,-122.6138889
Houston,29.7630556,-95.3630556
Greensboro,36.0725,-79.7922222
Spring Lake,35.1677778,-78.9730556
Chugwater,41.7566667,-104.8211111
Martin,36.3433333,-88.8502778
Bentonville,36.3727778,-94.2086111
Layton,41.0602778,-111.9702778
Newport,34.7863889,-76.8594444
Santa Cruz,36.9741667,-122.0297222
Atlanta,33.7488889,-84.3880556
New York City (Queens),40.7141667,-74.0063889
Chico,39.7286111,-121.8363889
New York City,40.7141667,-74.0063889
Swadlincote&#44 Derbyshire (Uk/England),52.771318,-1.554997
Valdese,35.7405556,-81.5633333
Harrisonburg,38.4494444,-78.8691667
Aurora,39.7294444,-104.8313889
Rapid City,44.0805556,-103.2305556
Ferndale,48.8466667,-122.5897222
Kent,47.3811111,-122.2336111
Port Orchard,47.5405556,-122.635
Renton,47.4830556,-122.2158333
Seattle,47.6063889,-122.3308333
Vashon Island,47.44732,-122.45985
Moses Lake,47.1302778,-119.2769444
North Bend,47.4958333,-121.7855556
Garden Valley,38.8541667,-120.8583333
Smiths Ferry,44.3013889,-116.0886111
Seattle,47.6063889,-122.3308333
Manassas,38.7508333,-77.4755556
Milford,41.2222222,-73.0569444
San Antonio,29.4238889,-98.4933333
Mt. Olive,38.2377778,-81.2336111
Bland,38.3016667,-91.6327778
Bremerton,47.5675,-122.6313889
Darien,41.0786111,-73.4697222
Cadillac,44.2519444,-85.4011111
Seattle,47.6063889,-122.3308333
San Diego,32.7152778,-117.1563889
Bosler,41.5761111,-105.6947222
Lake Forest Park,47.7569444,-122.2797222
Rexford,48.8994444,-115.1711111
Darwin (Nt&#44 Australia),-12.45722,130.836639
Noble,35.1391667,-97.3944444
Albrightsville,41.0144444,-75.6013889
Monroe,33.7947222,-83.7133333
San Clemente,33.4269444,-117.6111111
Los Angeles,34.0522222,-118.2427778
Ft. Mckay (Canada),57.186758,-111.636785
Crandall,38.2875,-86.0663889
Flagstaff,35.1980556,-111.6505556
San Jose,37.3394444,-121.8938889
Weatherford,32.7591667,-97.7969444
Plant City,28.0183333,-82.1130556
Little Rock,34.7463889,-92.2894444
Granada Hills,34.2647222,-118.5222222
Ironwood,46.4547222,-90.1708333
Chiefland,29.4747222,-82.86
Richmond,39.8288889,-84.8902778
Indianapolis,39.7683333,-86.1580556
Westerville,40.1261111,-82.9291667
Sheridan,34.3069444,-92.4011111
Elizabeth,40.2691667,-79.89
Collinsville,39.5152778,-84.6094444
North Little Rock,34.7694444,-92.2669444
Aberdeen,46.9755556,-123.8144444
Knoxville,35.9605556,-83.9208333
Wofford Heights,35.7069444,-118.4552778
Hamilton,39.3994444,-84.5613889
Mesa,33.4222222,-111.8219444
Sylvan Beach,43.1963889,-75.7308333
Brewster,41.76,-70.0833333
Maryville,40.3461111,-94.8722222
Tuolumne,37.9608333,-120.2363889
Delaware,40.2986111,-83.0680556
Dallas/Ft. Worth (Mansfield),32.755488,-97.330766
Gainesville,29.6513889,-82.325
Sedona,34.8697222,-111.7602778
Oakland,41.8358333,-96.4666667
Grants Pass-Murphy Area,42.439007,-123.328392
Calexico,32.6788889,-115.4980556
Groves,29.9480556,-93.9169444
Brookline,42.3316667,-71.1216667
Punta Gorda (Near) (I-75; Near Kings Highway Exit),26.9294444,-82.0455556
Saugus,34.4113889,-118.5391667
Wingdale,41.6469444,-73.5686111
Great Falls,47.5002778,-111.3
Mckenzie Bridge,44.1752778,-122.1627778
Trenton,40.2169444,-74.7433333
Lawrence,38.9716667,-95.235
Calabash,33.8905556,-78.5686111
Scottsdale,33.5091667,-111.8983333
Baltimore,39.2902778,-76.6125
El Paso (Rural),40.7391667,-89.0163889
Rock Hill,34.9247222,-81.0252778
East Scarborough (Canada),43.776426,-79.231752
Minneapolis,44.98,-93.2636111
Saint Paul,44.9444444,-93.0930556
Waterloo (Canada),45.35,-72.516667
Phoenix,33.4483333,-112.0733333
New Caney,30.155,-95.2111111
La Crosse,43.8013889,-91.2394444
Arlington,32.7355556,-97.1077778
Ammon,43.4697222,-111.9658333
Houston,29.7630556,-95.3630556
Oxford,39.5069444,-84.7452778
Kansas City,39.0997222,-94.5783333
St. Charles,38.7838889,-90.4811111
Joliet,41.525,-88.0816667
Phoenix,42.2755556,-122.8169444
Thrall,34.384721,-117.902842
Cary,35.7913889,-78.7813889
Mineola,32.6630556,-95.4880556
Marlton,39.8911111,-74.9222222
Hiwassee,36.9686111,-80.7138889
Bartlesville,36.7472222,-95.9805556
Austin,30.2669444,-97.7427778
Bullhead City/Laughlin,35.16545,-114.556774
Brentwood,42.9786111,-71.0733333
Gleason,45.3088889,-89.4963889
Seattle,47.6063889,-122.3308333
Springfield,37.2152778,-93.2980556
Gleason,45.3088889,-89.4963889
Americus,32.0722222,-84.2327778
Converse,40.5775,-85.8733333
Gleason,45.3088889,-89.4963889
Schuylkill Haven,40.6305556,-76.1713889
Thunder Bay (Canada),48.4,-89.233333
Spanaway,47.1041667,-122.4333333
Moab,38.5733333,-109.5491667
Lockport,41.5894444,-88.0577778
Las Vegas,36.175,-115.1363889
Euharlee,34.1447222,-84.9330556
Kalispell,48.1958333,-114.3119444
Beltzhoover,40.4197222,-80.0022222
Las Cruces,32.3122222,-106.7777778
Silver City,34.9958333,-79.2263889
Panacea,30.0372222,-84.3877778
Charlotte,35.2269444,-80.8433333
Thompson (Canada),55.75,-97.866667
Lincoln,40.8,-96.6666667
Heber,34.4313889,-110.5933333
Virginia Beach,36.8527778,-75.9783333
Waterford,42.7022222,-83.4027778
Sacramento,38.5816667,-121.4933333
Worcester,42.2625,-71.8027778
Aurora,39.7294444,-104.8313889
New York City,40.7141667,-74.0063889
Columbia,38.9516667,-92.3338889
Bremerton,47.5675,-122.6313889
Wolf Point,48.0905556,-105.64
Mission,43.3058333,-100.6577778
Myrtle Beach,33.6888889,-78.8869444
Wichita,37.6922222,-97.3372222
Lincoln Beach,44.8505556,-124.0455556
Tucson/Marana,32.436381,-111.222442
Arden,35.4661111,-82.5166667
Pancake Bay (Canada),46.959934,-84.687135
Liberty,41.8011111,-74.7469444
Bretton Woods,44.2580556,-71.4416667
Irvine,33.6694444,-117.8222222
Rye Patch,40.4475,-118.2886111
Cedar City,37.6775,-113.0611111
San Diego,32.7152778,-117.1563889
Ballston Lake,42.9116667,-73.8686111
Loretto,35.0777778,-87.4397222
Waynesboro,39.7558333,-77.5780556
Gardiner (Near),44.23,-69.7758333
Winchester,35.1858333,-86.1122222
Winchester,35.1858333,-86.1122222
St. George (Over),37.1041667,-113.5833333
Norman,35.2225,-97.4391667
Hancock County,41.39,-95.3622222
Missoula,46.8722222,-113.9930556
Nine Mile River (Canada),45.041389,-63.576944
Hull (Uk/England),53.716667,-0.333333
Olathe,38.8813889,-94.8188889
Winchester,35.1858333,-86.1122222
Ozark,31.4588889,-85.6405556
Tucumcari,35.1716667,-103.7244444
Houston,29.7630556,-95.3630556
Quincy,30.5869444,-84.5833333
Davis,39.1286111,-79.465
Lagrangeville,41.6508333,-73.7633333
Seattle,47.6063889,-122.3308333
Pampatar-Margarita Island (Venezuela),10.999444,-63.794444
Lancaster,34.7202778,-80.7711111
Dothan,31.2230556,-85.3905556
Western Springs,41.8097222,-87.9005556
Cheyenne,41.14,-104.8197222
Harleysville,40.2794444,-75.3875
Buffalo,42.8863889,-78.8786111
Overland Park,38.9822222,-94.6705556
Charlotte,35.2269444,-80.8433333
Austin,30.2669444,-97.7427778
Greeley,40.4233333,-104.7086111
Boulder,40.015,-105.27
Havertown,39.9808333,-75.3088889
Warren,42.4775,-83.0277778
Thornton,39.8680556,-104.9713889
Cedarville,39.7441667,-83.8086111
Buffalo,42.8863889,-78.8786111
Carlisle (Canada),43.128739,-81.483506
Waterloo,42.4927778,-92.3427778
Largo,38.8975,-76.8305556
Reistville,40.3272222,-76.3030556
Valley,41.3127778,-96.3458333
Maplewood&#44,44.953022,-92.995215
Holts Summit,38.6402778,-92.1222222
Canandaigua,42.8741667,-77.2883333
Eugene,44.0522222,-123.0855556
Columbia,34.0005556,-81.035
Toney,34.8980556,-86.7336111
Lancaster,40.0377778,-76.3058333
Fresno,36.7477778,-119.7713889
Grand Junction,39.0638889,-108.55
Moss (Norway),59.434091,10.658383
Muscatine,41.4244444,-91.0430556
Douglas,31.5086111,-82.85
Absecon,39.4283333,-74.4961111
Anson,32.7563889,-99.8958333
Buckeye,33.3702778,-112.5830556
Glendora,34.1361111,-117.8644444
Glendora,34.1361111,-117.8644444
Sugar Grove,41.7613889,-88.4436111
Salt Lake City,40.7608333,-111.8902778
St. Louis,38.6272222,-90.1977778
Towson,39.4013889,-76.6022222
Hartland,43.105,-88.3419444
Boise,43.6136111,-116.2025
Jerusalem (Israel),31.768319,35.21371
Bonney Lake,47.1772222,-122.1852778
Hagerstown,39.6416667,-77.7202778
Normandy,35.4519444,-86.26
Murfreesboro,35.8455556,-86.3902778
Tooele,40.5308333,-112.2975
St. Louis,38.6272222,-90.1977778
Menomonee Falls,43.1788889,-88.1172222
Bloomington,44.8408333,-93.2980556
Castor,32.2530556,-93.1655556
Escondido,33.1191667,-117.0855556
St. Cloud,45.5608333,-94.1622222
Fremont,37.5483333,-121.9875
Hunlock Creek,41.2058333,-76.0663889
Beale Afb,39.111504,-121.359881
Bowdoinham,44.01,-69.8988889
Bethesda,38.9805556,-77.1005556
Lake Havasu City,34.4838889,-114.3216667
Bozeman,45.6797222,-111.0377778
Kirkland (Canada),45.46,-73.85
Chennai (India),13.052414,80.250825
Rockford,42.2711111,-89.0938889
Brigantine,39.41,-74.365
Boise,43.6136111,-116.2025
Yadkinville,36.1344444,-80.6597222
Ocean Isle Beach,33.8941667,-78.4269444
Reseda,34.2011111,-118.5355556
Blaine,48.9938889,-122.7458333
Albuquerque,35.0844444,-106.6505556
Sacramento,38.5816667,-121.4933333
Catoosa,36.1888889,-95.7455556
Reedsville,39.5105556,-79.7986111
Four States,39.4797222,-80.31
Beverly,42.5583333,-70.8805556
East Haven,41.2761111,-72.8688889
Winnipeg (Canada),49.883333,-97.166667
Philadelphia,39.9522222,-75.1641667
Tucson,32.2216667,-110.9258333
Pittsburgh,40.4405556,-79.9961111
Scofield Barracks,21.495496,-158.062655
Jacksonville,30.3319444,-81.6558333
Hickory,35.7330556,-81.3413889
Rooseville,42.497258,-82.937141
Hollister,36.8525,-121.4005556
Sacramento,38.5816667,-121.4933333
Baker/Stateline (Between),35.691188,-115.497908
Breckenridge,32.7555556,-98.9019444
Middletown,41.5622222,-72.6511111
Salem,44.9430556,-123.0338889
Carbondale,37.7272222,-89.2166667
Ronan/Polson (Lake County),47.692526,-114.165781
Conway (At Salltillo Heights Community),35.0886111,-92.4419444
Redwood Shores,37.5319444,-122.2469444
San Mateo,37.5630556,-122.3244444
Chattanooga,35.0455556,-85.3097222
Danville,37.6455556,-84.7722222
The Colony,33.0888889,-96.8861111
Houston,29.7630556,-95.3630556
Chatsworth (Fort Mountain),34.7658333,-84.77
Woodstock,41.9483333,-71.9744444
Kenosha,42.5847222,-87.8211111
Jefferson City,38.5766667,-92.1733333
Bellerose,40.7241667,-73.7155556
Polk County,44.926653,-123.491926
Doaktown (Canada),46.55,-66.116667
Plymouth,43.7486111,-87.9769444
Plymouth,43.7486111,-87.9769444
Petit Jean Mountain,35.022871,-93.699918
Nashville,36.1658333,-86.7844444
Assouan (Egypt),24.088938,32.899829
Haworth,33.8463889,-94.6525
Renton,47.4830556,-122.2158333
Glasgow (Uk/Scotland),55.833333,-4.25
Guilford/Abbot,45.168943,-69.384492
Osaka (Japan),34.693738,135.502165
Brookline,42.3316667,-71.1216667
Indianapolis,39.7683333,-86.1580556
Ogden,41.2230556,-111.9730556
Savannah,32.0833333,-81.1
Galion,40.7336111,-82.79
Chaco Canyon National Historic Park,36.060293,-107.967008
Waco,31.5491667,-97.1463889
Portland,45.5236111,-122.675
Colorado (Southeast),39.550051,-105.782067
Ocala,29.1869444,-82.1402778
Las Vegas,36.175,-115.1363889
Gilmer County,34.693536,-84.480261
Austin,30.2669444,-97.7427778
Mckinleyville,40.9466667,-124.0994444
Stevensville,38.9805556,-76.3147222
Hanna,40.4041667,-110.7644444
Hayward,37.6688889,-122.0797222
Columbus,39.9611111,-82.9988889
Buckeye Lake,39.9336111,-82.4725
Easton,40.6883333,-75.2211111
Pinos Altos,32.8633333,-108.2208333
Sumner,47.2033333,-122.2391667
Northampton (Uk/England),52.25,-0.883333
Whitmire,34.5027778,-81.6116667
Savannah,32.0833333,-81.1
Coulee Dam Area,47.941709,-119.004696
Wheeling,42.1391667,-87.9288889
San Diego,32.7152778,-117.1563889
Fort Wayne,41.1305556,-85.1288889
Big Cypress Preserve,25.901107,-81.321402
Chandler,33.3061111,-111.8405556
Pineville,36.7619444,-83.695
Chicago,41.85,-87.65
Modesto,37.6391667,-120.9958333
Daytona Beach,29.2105556,-81.0230556
North Zulch,30.9175,-96.1080556
Porterville,36.0652778,-119.0158333
Virginia Beach,36.8527778,-75.9783333
Rosthern (Canada),52.65,-106.333333
Colorado Springs,38.8338889,-104.8208333
Anderson,34.5033333,-82.6502778
Saint Clair Shores,42.495556,-82.900278
Santa Maria,34.9530556,-120.4347222
Santa Maria,34.9530556,-120.4347222
Boulder,40.015,-105.27
Westland,42.3241667,-83.4002778
Ventura,34.2783333,-119.2922222
Leavenworth,47.5963889,-120.6602778
St. Joseph,42.1097222,-86.48
Puyallup,47.1855556,-122.2916667
Plainview,34.1847222,-101.7063889
Groveland,28.5577778,-81.8513889
Silver City,32.77,-108.2797222
Gloucester,42.6158333,-70.6625
Nantucket,41.2833333,-70.1
Tokyo (Japan),35.689488,139.691706
Wheaton,39.0397222,-77.0555556
Ontario (Canada),51.253775,-85.323214
Ridgefield,41.2813889,-73.4986111
Kingston,41.9269444,-73.9977778
Southbridge,42.075,-72.0338889
Utica,43.1008333,-75.2330556
Leeds (Uk/England),53.8,-1.583333
Gulf Of Mexico,27.716432,-97.328818
Marysville,48.0519444,-122.1758333
New Salisbury,38.3136111,-86.095
Woodland,38.6786111,-121.7722222
Lindale,32.5155556,-95.4091667
Avon,41.4516667,-82.0355556
Hart,43.6983333,-86.3638889
Havelock,34.8788889,-76.9016667
St. George,37.1041667,-113.5833333
Murrells Inlet,33.5508333,-79.0416667
Kissimmee,28.2916667,-81.4077778
Los Angeles,34.0522222,-118.2427778
Coral Springs,26.2708333,-80.2708333
Tulsa,36.1538889,-95.9925
Pomona,34.0552778,-117.7513889
Garden Grove,33.7738889,-117.9405556
San Jose,37.3394444,-121.8938889
Selby (Uk/England),53.783333,-1.066667
Laporte,41.6105556,-86.7225
Rowlett,32.9027778,-96.5636111
Casa Grande (Near),32.8794444,-111.7566667
Melksham&#44 Wiltshire (Uk/England),51.370447,-2.137629
Haltom,30.415128,-94.88732
Sugar Land,29.6194444,-95.6347222
Oakham&#44 Rutland (Uk/England),52.669563,-0.726625
Caswell,36.386022,-79.290213
Arcadia,34.1397222,-118.0344444
Yakima,46.6022222,-120.5047222
Gibson,33.2333333,-82.5955556
Cullman,34.1747222,-86.8436111
Troutville,37.4180556,-79.875
Greeley,40.4233333,-104.7086111
Salem,44.9430556,-123.0338889
Troutville,37.4180556,-79.875
Port Saint Lucie,27.2936111,-80.3505556
Columbus,39.9611111,-82.9988889
Meredith,43.6575,-71.5008333
Charlivox,45.318063,-85.2584
Pittsburgh,40.4405556,-79.9961111
Rochester,44.0216667,-92.4697222
Bridgewater,40.623333,-74.601111
Orlando,28.5380556,-81.3794444
Surfside Beach,33.6058333,-78.9733333
Gainesville,34.2977778,-83.8241667
Rosamond,34.8641667,-118.1625
Saugus,42.4647222,-71.0105556
Gaia,13.075418,-59.493768
Omaha,41.2586111,-95.9375
Matteson,41.5038889,-87.7130556
Fort Wayne,41.1305556,-85.1288889
Slidell,30.275,-89.7811111
Cedar City,37.6775,-113.0611111
Athens,33.9608333,-83.3780556
Palmer Lake,39.1222222,-104.9166667
Clinton,32.3413889,-90.3216667
Greensboro,36.0725,-79.7922222
Springdale,36.1866667,-94.1286111
Rochester,43.1547222,-77.6158333
Cedar Rapids,42.0083333,-91.6438889
Englewood,26.9616667,-82.3527778
Gunnison,38.5458333,-106.9247222
Piney Flats,36.4194444,-82.3041667
Johnson City,36.3133333,-82.3536111
Johnson City,36.3133333,-82.3536111
Johnson City,36.3133333,-82.3536111
St. Paul,36.9052778,-82.3111111
Williamson,37.6741667,-82.2775
Burlington,40.8075,-91.1127778
Belfry,37.6202778,-82.2691667
Tolland,41.8713889,-72.3691667
Boston,42.3583333,-71.0602778
Gold Coast (Australia),-28.00029,153.430878
Myerstown,40.3744444,-76.3030556
Desert Hot Springs,33.9611111,-116.5008333
Orlando,28.5380556,-81.3794444
Wrightsville Beach,34.2083333,-77.7966667
Lyndonville,44.5336111,-72.0036111
Wooster,40.805,-81.9352778
Atlanta,33.7488889,-84.3880556
Olympia,47.0380556,-122.8994444
Vineland (Canada),43.151355,-79.39277
Bath,40.7255556,-75.3944444
Spencer,39.2866667,-86.7625
Carlisle,40.2013889,-77.1891667
Oakdale,44.9630556,-92.9647222
New Bedford,41.6361111,-70.9347222
Queen Creek,33.2486111,-111.6336111
Amelia,39.0283333,-84.2177778
Sacramento,38.5816667,-121.4933333
Fort Worth,32.7252778,-97.3205556
Surfside/Myrtle Beach,33.629974,-78.964882
Globe,33.3941667,-110.7858333
Indianapolis,39.7683333,-86.1580556
South Weber,41.1325,-111.9294444
Payette,44.0783333,-116.9327778
Meridian,43.6122222,-116.3905556
La Jolla,32.8472222,-117.2733333
La Jolla,32.8472222,-117.2733333
Cherokee Village,36.2977778,-91.5158333
Montgomery,32.3666667,-86.3
Greenwich,41.0263889,-73.6288889
Eglin Afb,30.463558,-86.553338
Bartlesville,36.7472222,-95.9805556
Tinker Afb,35.417523,-97.387416
Charlotte,42.5636111,-84.8358333
San Jose,37.3394444,-121.8938889
San Jose,37.3394444,-121.8938889
Flagler Beach,29.4747222,-81.1272222
Lihue,21.9811111,-159.3711111
Kannapolis,35.4872222,-80.6219444
Berkshire,42.3041667,-76.1869444
Brooksville,28.555,-82.3880556
Ponte Vedra Beach,30.2394444,-81.3858333
Crescent City,41.7561111,-124.2005556
Ignacio,37.115,-107.6325
Oxnard/Camarillo (From&#44 Freeway),34.150068,-119.214262
Ottawa (Woodroffe &Amp; Baseline) (Canada),45.416667,-75.7
Lake Stevens,48.0152778,-122.0625
Bridgewater,43.5516667,-97.5072222
Apple Valley,34.5008333,-117.185
Pensacola Beach,30.3333333,-87.1375
Duluth (Around&#44 Lawrenceville Exit Area),34.0027778,-84.1447222
Signal Mountain,35.1225,-85.3438889
Moab,38.5733333,-109.5491667
Victoria (Canada),46.216667,-63.483333
Charlotte,35.2269444,-80.8433333
Jacksonville,30.3319444,-81.6558333
Covington,47.3483333,-122.1136111
Melbourne (Vic&#44 Australia),-37.813938,144.963425
Napoleonville,29.9402778,-91.0247222
Yampa,40.1525,-106.9080556
Oakland Park,26.1719444,-80.1322222
Eureka,40.8022222,-124.1625
Tucson,32.2216667,-110.9258333
Johnstown,40.1536111,-82.6852778
Denver,39.7391667,-104.9841667
Cadiz-Wallonia Area,37.839333,-84.270018
Las Vegas,36.175,-115.1363889
Bonita Springs,26.3394444,-81.7788889
Battle Ground,45.7811111,-122.5322222
Jacksonville,30.3319444,-81.6558333
Brighton,42.35,-71.1569444
Ditcot&#44 Oxordshire (Uk/England),51.608044,-1.24484
South Stoke&#44 Goring (Uk/England),51.543102,-1.097742
Renton,47.4830556,-122.2158333
Seattle,47.6063889,-122.3308333
Kracow (Poland),50.06465,19.94498
Vrsac (Yugoslavia),45.116667,21.3
Columbus,39.9611111,-82.9988889
Dallas,32.7833333,-96.8
Little Rock,34.7463889,-92.2894444
Marietta,33.9525,-84.55
Cape Town (South Africa),-33.924868,18.424055
Payson,34.2308333,-111.3244444
West Jordan,40.5,-111.95
Richardson,32.9480556,-96.7294444
Venice,27.0994444,-82.4544444
Montreal (Canada),45.5,-73.583333
Opp,31.2825,-86.2555556
Missoula,46.8722222,-113.9930556
Lovingston,37.7597222,-78.8711111
State College,40.7933333,-77.8602778
North Platte,41.1238889,-100.765
Las Vegas,36.175,-115.1363889
Somers,41.3280556,-73.6861111
Fairfax,37.9872222,-122.5877778
Raleigh,35.7719444,-78.6388889
Converse (Near),40.5775,-85.8733333
San Antonio,29.4238889,-98.4933333
Sterling,41.7886111,-89.6961111
Liveley (Canada),46.436543,-81.146561
Kissimmee,28.2916667,-81.4077778
South Daytona Beach,29.132876,-80.980941
Carbondale,37.7272222,-89.2166667
Arlington,32.7355556,-97.1077778
Orlando,28.5380556,-81.3794444
West Valley,41.591051,-111.384926
Kearns,40.66,-111.9955556
Kearns,40.66,-111.9955556
Clementon,39.8113889,-74.9833333
Yukon,35.5066667,-97.7622222
Milwaukee,43.0388889,-87.9063889
Chambersburg,39.9375,-77.6613889
West Chester,39.8494444,-75.3561111
West Chester,39.8494444,-75.3561111
Wixom,42.5247222,-83.5363889
Murfreesboro,35.8455556,-86.3902778
Glendale,33.5386111,-112.1852778
Phoenix,33.4483333,-112.0733333
Corinth,34.9341667,-88.5222222
Downers Grove,41.8088889,-88.0111111
San Jose,37.3394444,-121.8938889
Talent,42.2458333,-122.7875
Choctaw Beach,30.4711111,-86.3433333
San Francisco,37.775,-122.4183333
Van Nuys,34.1866667,-118.4480556
Chicago,41.85,-87.65
Leeds (West Yorkshire) (Uk/England),53.8,-1.583333
Clinton,40.6366667,-74.9102778
Kristiansand (Norway),58.147578,7.996627
Austin,30.2669444,-97.7427778
Livermore,37.6819444,-121.7669444
Mesquite,32.7666667,-96.5988889
Leesburg,39.1155556,-77.5638889
Playa Del Rey,33.9488889,-118.4447222
Santa Ana,33.7455556,-117.8669444
Enfield,41.9761111,-72.5922222
Colony (1 Mile Nw Of),44.87,-104.1547222
Manteca,37.7975,-121.215
Camp Hill,40.2397222,-76.9202778
Camp Hill,40.2397222,-76.9202778
Dundalk (Ireland),53.997945,-6.405957
Rancho Santa Margarita,33.6408333,-117.6022222
Bracknell (Uk/England),51.416667,-0.75
Lavon,33.0275,-96.4338889
Riggins,45.4222222,-116.3144444
Wadsworth,41.0255556,-81.73
Plymouth (Uk/England),50.396389,-4.138611
Los Angeles,34.0522222,-118.2427778
Hermitage,41.2333333,-80.4488889
Littlerock,34.5211111,-117.9827778
Poughkeepsie,41.7002778,-73.9213889
St. Cloud,45.5608333,-94.1622222
Buffalo,42.8863889,-78.8786111
San Jose/Bay Area,37.339386,-121.894955
Amarillo,35.2219444,-101.8308333
Lakeside,32.8572222,-116.9213889
Lubbock,33.5777778,-101.8547222
Lubbock,33.5777778,-101.8547222
Manchester,38.5969444,-90.5091667
Hyde Park,41.7847222,-73.9336111
Maple Lake,45.2291667,-94.0016667
Boulder,40.015,-105.27
West Palm Beach,26.7052778,-80.0366667
Juno Beach,26.8794444,-80.0536111
Warner,43.2805556,-71.8172222
Blowing Rock,36.135,-81.6777778
Norristown,40.1213889,-75.3402778
Santa Ana,33.7455556,-117.8669444
Phoenix,33.4483333,-112.0733333
Nazareth,40.7402778,-75.31
Omaha,41.2586111,-95.9375
Manchester,41.7758333,-72.5219444
Cocoa Beach,28.3197222,-80.6077778
Harrington,47.4811111,-118.2533333
Jacksonville,30.3319444,-81.6558333
Gilroy,37.0058333,-121.5672222
Santa Rosa,38.4405556,-122.7133333
Eugene,44.0522222,-123.0855556
El Dorado Hills,38.6858333,-121.0811111
New Lenox,41.5119444,-87.9655556
Frisco,35.235,-75.6288889
Leland,34.2561111,-78.045
Baca Grande,37.996388,-105.699733
Orlando,28.5380556,-81.3794444
Washington,42.7244444,-83.0361111
Center Moriches,40.8002778,-72.7902778
Temple,31.0980556,-97.3425
Waynesboro,39.7558333,-77.5780556
Liberty,35.8533333,-79.5719444
West Walworth,43.1391667,-77.2725
Langhorne,40.1744444,-74.9230556
Webster,43.2122222,-77.4302778
North Grafton,42.235641,-71.696998
Merton,43.1466667,-88.3066667
Birmingham,33.5205556,-86.8025
Navarre,30.4013889,-86.8636111
Ft. Meade/Bwi,39.177404,-76.668392
Hagerstown,39.6416667,-77.7202778
Ridgewood,40.7,-73.9061111
Stockton/Linden,37.972571,-121.147986
Machias,44.715,-67.4619444
Norman,35.2225,-97.4391667
San Rafael,37.9736111,-122.53
Union City,37.5958333,-122.0180556
North Long Beach,33.86,-118.1847222
Algodones,35.3805556,-106.4786111
Allentown,40.6083333,-75.4905556
Poteau,35.0536111,-94.6233333
Toton&#44 Nottingham (Uk/England),52.906367,-1.257422
Williamsport,39.6005556,-77.8208333
Cornwall (Canada),46.24,-63.21
Lakeside,32.8572222,-116.9213889
San Jose,37.3394444,-121.8938889
Palm Harbor,28.0777778,-82.7638889
Wymondham (Norfolk)(Uk/England),52.566667,1.116667
Independence,36.6222222,-81.1511111
Colville,48.5466667,-117.9044444
Davie,26.0625,-80.2333333
Holgate (Lbi),39.54,-74.2572222
Boise,43.6136111,-116.2025
Silverdale,47.6447222,-122.6936111
Carolina Beach,34.035,-77.8938889
Okeechobee,27.2436111,-80.83
Charlottesville,38.0291667,-78.4769444
Vista,33.2,-117.2416667
Chilliwack (Canada),49.166667,-121.95
Charlotte,35.2269444,-80.8433333
Hopkinsville,36.8655556,-87.4886111
Birmingham,33.5205556,-86.8025
Detroit/Warm Springs (Between&#44 Cascade Mts.),44.763452,-121.266162
Boulder,40.015,-105.27
Allendale,42.9722222,-85.9536111
Wallingford,41.4569444,-72.8236111
Forest City,35.3338889,-81.8652778
Shasta Lake,40.6805556,-122.3697222
Forest City,35.3338889,-81.8652778
Tonopah (10 East Bound M.M. 89),38.0672222,-117.2291667
Grass Lake,42.2508333,-84.2130556
Memphis,35.1494444,-90.0488889
Evansville,37.9747222,-87.5558333
The Dalles,45.5947222,-121.1775
Bettendorf,41.5244444,-90.5155556
Jacksonville,39.7338889,-90.2288889
Germantown,35.0866667,-89.81
Portland,45.5236111,-122.675
Los Angeles,34.0522222,-118.2427778
Latrobe,40.3211111,-79.3797222
Ventura,34.2783333,-119.2922222
Bellevue,47.6105556,-122.1994444
Page (Lake Powell),36.9086111,-111.4727778
Atlanta (South Side Of&#44 Forest Park),33.7488889,-84.3880556
Boynton Beach,26.525,-80.0666667
Royal Palm Beach,26.7080556,-80.2308333
Seattle,47.6063889,-122.3308333
Vancouver (Canada),49.25,-123.133333
Mckinney,33.1975,-96.615
Regina (Canada),50.45,-104.616667
San Antonio,29.4238889,-98.4933333
Houston,29.7630556,-95.3630556
Sarasota,27.3361111,-82.5308333
Pilot Mountain (Near),36.3863889,-80.4697222
Bedford,38.8611111,-86.4872222
Kotzebue,66.8983333,-162.5966667
Manchester (Uk/England),53.5,-2.216667
Gisborne (New Zealand),-38.662334,178.017649
Memphis,38.4833333,-85.7616667
Purlear,36.1819444,-81.2844444
Salem,44.9430556,-123.0338889
Route 80 W (Between Ex 25 And 24),9.007198,-79.507698
Marion,35.2144444,-90.1963889
Everett,47.9791667,-122.2008333
Blountville,36.5330556,-82.3269444
Kingsport,36.5483333,-82.5619444
Fair Oaks,38.6447222,-121.2711111
Bedford,32.8438889,-97.1427778
Alexandria,40.2627778,-85.6758333
Watersmeet,46.2677778,-89.1777778
Modesto,37.6391667,-120.9958333
Knoxville,35.9605556,-83.9208333
North Bend,47.4958333,-121.7855556
Columbia,38.9516667,-92.3338889
Liberty,30.0577778,-94.7952778
Tuscumbia/Cherokee (Between),34.716159,-87.693717
Port Washington,40.8255556,-73.6986111
Clearlake,38.9583333,-122.6252778
Nashua,42.7652778,-71.4680556
Berkeley,37.8716667,-122.2716667
Columbus,39.2013889,-85.9213889
Los Angeles,34.0522222,-118.2427778
Schenectady,42.8141667,-73.94
West Chester,39.0875,-81.9227778
Mukwonago,42.8666667,-88.3333333
Mukwonago,42.8666667,-88.3333333
Oakland,37.8044444,-122.2697222
Kansas City,39.0997222,-94.5783333
Bridgewater (Canada),44.366667,-64.516667
Miama,25.789097,-80.204044
Bono,35.9086111,-90.8025
Searcy,35.2505556,-91.7361111
Tattonhall (Uk/England),53.120933,-2.771825
Fairfax,37.9872222,-122.5877778
Fairfax,37.9872222,-122.5877778
Hampton Bays,40.8688889,-72.5180556
Ada,34.7744444,-96.6780556
Portland,43.6613889,-70.2558333
Denver,39.7391667,-104.9841667
Denver,39.7391667,-104.9841667
Uk/England,52.355518,-1.17432
Des Moines (East Of),41.6005556,-93.6088889
Anchorage,61.2180556,-149.9002778
Hickory Hills,41.7255556,-87.825
Brazil,39.5236111,-87.125
Oak Forest,41.6027778,-87.7438889
Louisville,38.2541667,-85.7594444
Hillsboro,38.2933333,-83.6588889
Downingtown,40.0063889,-75.7036111
Orlando,28.5380556,-81.3794444
Albuquerque,35.0844444,-106.6505556
Wilmington,34.2255556,-77.945
Memphis,35.1494444,-90.0488889
Santa Maria,34.9530556,-120.4347222
Peoria,33.5805556,-112.2366667
Simi Valley,34.2694444,-118.7805556
Carbondale,37.7272222,-89.2166667
Waterford,42.7022222,-83.4027778
Los Angeles,34.0522222,-118.2427778
Gillingham (Uk/England),51.4,0.566667
Hendersonvlle,36.304774,-86.619996
Myrtle Beach,33.6888889,-78.8869444
Myrtle Beach,33.6888889,-78.8869444
Keller,32.9344444,-97.2513889
Manchester (Uk/England),53.5,-2.216667
Gardendale,33.66,-86.8127778
Farmers Branch,32.9263889,-96.8958333
Cornwall,41.434338,-74.035368
Rosebud,31.0727778,-96.9783333
Wentzville,38.8113889,-90.8527778
Pacifica To Belmont,37.520215,-122.275801
Kankakee (Approx. 5 Mi. S Of),41.12,-87.8611111
Dallas,32.7833333,-96.8
Indianapolis,39.7683333,-86.1580556
Tucson,32.2216667,-110.9258333
Asheville,35.6008333,-82.5541667
Culpeper,38.4730556,-77.9969444
Leuven (Belgium),50.866667,4.7
Raleigh,35.7719444,-78.6388889
Milwaukee,43.0388889,-87.9063889
St. Paul (694E And Also 96),44.9444444,-93.0930556
Senekal (South Africa),-28.316667,27.6
Bloemfontein (Free State),-29.1,26.216667
Ft. Lauderdade,26.122439,-80.137317
Mossel Bay (South Africa),-34.183333,22.133333
Helena,36.5461111,-98.2697222
Highland,41.7208333,-73.9605556
Huger,33.0963889,-79.8036111
Martinez,38.0194444,-122.1330556
Honeoye Falls,42.9522222,-77.5905556
Ackworth (Uk/England),53.65,-1.333333
Pittsburgh,40.4405556,-79.9961111
Reidsville,32.0866667,-82.1180556
Katy,29.7855556,-95.8241667
Portland,45.5236111,-122.675
Baylis,39.7283333,-90.9080556
Queen Creek,33.2486111,-111.6336111
Burwell,41.7816667,-99.1327778
Chesapeake,36.8188889,-76.2752778
Pasadena,39.1072222,-76.5713889
Shelbyville,35.4833333,-86.4602778
Country Club Hills,41.5680556,-87.7202778
Knoxville,35.9605556,-83.9208333
Morris,41.3572222,-88.4211111
Dupont,47.0969444,-122.63
Glendale,33.5386111,-112.1852778
Coburg,44.1372222,-123.0652778
Bothell,47.7625,-122.2041667
San Francisco,37.775,-122.4183333
San Diego,32.7152778,-117.1563889
Greewood (Canada),44.971725,-64.934129
Cardiff (South Wales) (Uk/Wales),51.5,-3.2
Lexington,33.9813889,-81.2363889
Gagetown (Canada),45.766667,-66.15
Alsip,41.6688889,-87.7386111
Lockport,41.5894444,-88.0577778
Brockton,42.0833333,-71.0188889
Wolfsville,39.5741667,-77.5508333
Bay Village,41.4847222,-81.9222222
Umpire,34.2788889,-94.0505556
Bonneville Salt Flats (Unincorp.),40.799722,-113.8
Fairbanks,64.8377778,-147.7163889
